Year,geoid,type,name,centroid_lng,centroid_lat,bbox_arr
2020,01,state,Alabama,-86.8434593,32.7396323,"{-88.473227,30.144425,-84.888246,35.008028}"
2020,02,state,Alaska,-152.8397334,63.347356,"{-188.148909,51.214183,-128.77847,71.365162}"
2020,04,state,Arizona,-111.6063449,34.2039362,"{-114.8163,31.332341,-109.045172,37.003725}"
2020,05,state,Arkansas,-92.4446262,34.8955256,"{-94.617859,33.004282,-89.640997,36.499749}"
2020,06,state,California,-119.5434183,37.1551773,"{-124.482003,32.528832,-114.131211,42.009503}"
2020,08,state,Colorado,-105.5087122,38.9937669,"{-109.060204,36.992449,-102.041522,41.003444}"
2020,09,state,Connecticut,-72.7466572,41.5798637,"{-73.727775,40.950943,-71.787239,42.050511}"
2020,10,state,Delaware,-75.441644,38.9985661,"{-75.789023,38.451132,-74.984165,39.839516}"
2020,11,state,District of Columbia,-77.0165167,38.9042474,"{-77.119759,38.791645,-76.909393,38.995845}"
2020,12,state,Florida,-82.5143005,28.3989775,"{-87.634896,24.396308,-79.974306,31.000968}"
2020,13,state,Georgia,-83.4235109,32.6295789,"{-85.605165,30.355757,-80.78296,35.001303}"
2020,15,state,Hawaii,-155.4950421,19.8281671,"{-178.443593,18.86546,-154.755792,28.517269}"
2020,16,state,Idaho,-114.5588538,44.3484222,"{-117.243027,41.988182,-111.043495,49.000846}"
2020,17,state,Illinois,-89.1526108,40.1028754,"{-91.513079,36.970298,-87.019935,42.508481}"
2020,18,state,Indiana,-86.2919129,39.9013136,"{-88.097892,37.771672,-84.784535,41.761368}"
2020,19,state,Iowa,-93.4933473,42.0700243,"{-96.639485,40.37544,-90.140061,43.501196}"
2020,20,state,Kansas,-98.3834298,38.4985464,"{-102.051769,36.993016,-94.588387,40.003166}"
2020,21,state,Kentucky,-85.2929801,37.5336844,"{-89.571203,36.497058,-81.964788,39.147732}"
2020,22,state,Louisiana,-91.7987173,30.8634368,"{-94.043352,28.855127,-88.758388,33.01962}"
2020,23,state,Maine,-68.666616,45.4092843,"{-71.083928,42.917126,-66.885444,47.459833}"
2020,24,state,Maryland,-76.6744939,38.9466584,"{-79.487651,37.886605,-74.986282,39.723037}"
2020,25,state,Massachusetts,-71.4895915,42.1565196,"{-73.50821,41.187053,-69.858861,42.886778}"
2020,26,state,Michigan,-85.6604907,44.8441768,"{-90.418392,41.696118,-82.122971,48.306063}"
2020,27,state,Minnesota,-94.1996043,46.3159573,"{-97.239093,43.499361,-89.483385,49.384479}"
2020,28,state,Mississippi,-89.6561377,32.6864714,"{-91.655009,30.139845,-88.097888,34.996099}"
2020,29,state,Missouri,-92.4567826,38.35075,"{-95.774704,35.995685,-89.098968,40.61364}"
2020,30,state,Montana,-109.6348174,47.051177,"{-116.049153,44.357915,-104.039694,49.001109}"
2020,31,state,Nebraska,-99.8118646,41.5433053,"{-104.053514,39.999932,-95.30829,43.001707}"
2020,32,state,Nevada,-116.6151469,39.3310928,"{-120.006473,35.001857,-114.039461,42.001842}"
2020,33,state,New Hampshire,-71.5843145,43.6726907,"{-72.557124,42.697042,-70.575094,45.305778}"
2020,34,state,New Jersey,-74.6652012,40.1072744,"{-75.563586,38.788657,-73.88506,41.357607}"
2020,35,state,New Mexico,-106.1316181,34.4346843,"{-109.050431,31.33216,-103.002043,37.000233}"
2020,36,state,New York,-75.5962723,42.9133974,"{-79.76259,40.476578,-71.777491,45.015865}"
2020,37,state,North Carolina,-79.1308636,35.53971,"{-84.321821,33.752878,-75.400119,36.588137}"
2020,38,state,North Dakota,-100.4608258,47.442174,"{-104.049012,45.935072,-96.554411,49.000561}"
2020,39,state,Ohio,-82.7119975,40.4149297,"{-84.820305,38.403423,-80.518705,42.327132}"
2020,40,state,Oklahoma,-97.4867789,35.5900815,"{-103.002413,33.615787,-94.431014,37.002312}"
2020,41,state,Oregon,-120.6229578,43.9717125,"{-124.703541,41.992082,-116.463262,46.299099}"
2020,42,state,Pennsylvania,-77.8275298,40.9046013,"{-80.519851,39.719799,-74.689561,42.516072}"
2020,44,state,Rhode Island,-71.5264901,41.596485,"{-71.907258,41.095834,-71.088571,42.018799}"
2020,45,state,South Carolina,-80.8542639,33.8741776,"{-83.353928,31.995954,-78.499301,35.215485}"
2020,46,state,South Dakota,-100.2381762,44.4467957,"{-104.057879,42.479686,-96.436472,45.945377}"
2020,47,state,Tennessee,-86.3496339,35.85846,"{-90.310491,34.982924,-81.6469,36.678255}"
2020,48,state,Texas,-99.2818238,31.4347032,"{-106.645646,25.837164,-93.508039,36.500704}"
2020,49,state,Utah,-111.6563326,39.3349925,"{-114.052885,36.997657,-109.041572,42.001702}"
2020,50,state,Vermont,-72.6710173,44.0589536,"{-73.437905,42.726933,-71.465047,45.016658}"
2020,51,state,Virginia,-78.6681938,37.5222512,"{-83.675395,36.540852,-75.166435,39.466012}"
2020,53,state,Washington,-120.5757999,47.4073238,"{-124.848974,45.543541,-116.916071,49.002439}"
2020,54,state,West Virginia,-80.6183274,38.6472854,"{-82.644591,37.20154,-77.719519,40.638801}"
2020,55,state,Wisconsin,-89.7093916,44.6309071,"{-92.889433,42.49172,-86.249548,47.309822}"
2020,56,state,Wyoming,-107.5443922,42.9896591,"{-111.054558,40.994772,-104.052245,45.005815}"
2020,60,state,American Samoa,-170.6682674,-14.267159,"{-171.141907,-14.601813,-168.101612,-10.997203}"
2020,66,state,Guam,144.7719021,13.4417451,"{144.563426,13.182335,145.009167,13.706179}"
2020,69,state,Commonwealth of the Northern Mariana Islands,145.6181702,15.0010865,"{144.813338,14.036565,146.154418,20.616556}"
2020,72,state,Puerto Rico,-66.4107992,18.217648,"{-67.998751,17.831509,-65.168503,18.568002}"
2020,78,state,United States Virgin Islands,-64.9500433,18.3392359,"{-65.154118,17.623468,-64.512674,18.464984}"
2020,0100100,place,"Abanda, AL",-85.5270288,33.0916268,"{-85.542028,33.073844,-85.507248,33.108672}"
2020,0100124,place,"Abbeville, AL",-85.2591227,31.564724,"{-85.295796,31.53211,-85.211273,31.60001}"
2020,0100460,place,"Adamsville, AL",-86.9715269,33.6023153,"{-87.048818,33.521002,-86.895362,33.684118}"
2020,0100484,place,"Addison, AL",-87.1780043,34.2026811,"{-87.203611,34.179896,-87.147391,34.221796}"
2020,0100676,place,"Akron, AL",-87.7408993,32.8790657,"{-87.749665,32.872351,-87.733641,32.888734}"
2020,0100820,place,"Alabaster, AL",-86.8473723,33.2443986,"{-86.878773,33.168703,-86.743977,33.271757}"
2020,0100988,place,"Albertville, AL",-86.21066,34.2631303,"{-86.274477,34.216363,-86.145958,34.316804}"
2020,0101132,place,"Alexander City, AL",-85.937122,32.9272402,"{-86.007586,32.845653,-85.85269,32.996319}"
2020,0101180,place,"Alexandria, AL",-85.8720082,33.760819,"{-85.925608,33.738756,-85.847,33.798812}"
2020,0101228,place,"Aliceville, AL",-88.1593444,33.1237058,"{-88.202847,33.097274,-88.13436,33.175097}"
2020,0101396,place,"Allgood, AL",-86.5161092,33.9076226,"{-86.53844,33.895716,-86.502976,33.918148}"
2020,0101660,place,"Altoona, AL",-86.3051786,34.0400139,"{-86.363087,34.006325,-86.262308,34.049243}"
2020,0101708,place,"Andalusia, AL",-86.4780311,31.3094363,"{-86.52252,31.277095,-86.41788,31.34839}"
2020,0101756,place,"Anderson, AL",-87.2742737,34.9156749,"{-87.283263,34.883769,-87.257287,34.937948}"
2020,0101852,place,"Anniston, AL",-85.8108912,33.6734685,"{-85.931236,33.599966,-85.755367,33.750917}"
2020,0102116,place,"Arab, AL",-86.5011665,34.3323868,"{-86.560144,34.287767,-86.449993,34.36571}"
2020,0102260,place,"Ardmore, AL",-86.8290225,34.9878376,"{-86.857422,34.977195,-86.819389,34.992059}"
2020,0102320,place,"Argo, AL",-86.5052809,33.6910177,"{-86.537357,33.63726,-86.472335,33.744081}"
2020,0102428,place,"Ariton, AL",-85.7130614,31.5977718,"{-85.738224,31.578306,-85.687582,31.618066}"
2020,0102500,place,"Arley, AL",-87.2178311,34.0762335,"{-87.233182,34.063978,-87.171492,34.11398}"
2020,0102836,place,"Ashford, AL",-85.2362356,31.1852844,"{-85.257406,31.167127,-85.21431,31.20453}"
2020,0102860,place,"Ashland, AL",-85.8337064,33.2698922,"{-85.881233,33.23632,-85.789234,33.302007}"
2020,0102908,place,"Ashville, AL",-86.2700148,33.8351967,"{-86.304449,33.780574,-86.217905,33.894422}"
2020,0102956,place,"Athens, AL",-86.9507986,34.7790209,"{-87.08572,34.685703,-86.863712,34.840852}"
2020,0103004,place,"Atmore, AL",-87.4577975,31.1240665,"{-87.543384,30.997543,-87.429668,31.172924}"
2020,0103028,place,"Attalla, AL",-86.1210365,33.9861893,"{-86.139507,33.968095,-86.065624,34.040473}"
2020,0103076,place,"Auburn, AL",-85.4895446,32.607722,"{-85.584248,32.525036,-85.404466,32.730629}"
2020,0103220,place,"Autaugaville, AL",-86.6587521,32.4325631,"{-86.688707,32.414444,-86.623874,32.447769}"
2020,0103364,place,"Avon, AL",-85.2792111,31.1797269,"{-85.295153,31.168562,-85.265069,31.191279}"
2020,0103508,place,"Axis, AL",-88.0226202,30.9221711,"{-88.040133,30.909889,-88.00174,30.952109}"
2020,0103556,place,"Babbie, AL",-86.3194368,31.3020825,"{-86.346256,31.270466,-86.297317,31.33286}"
2020,0103676,place,"Baileyton, AL",-86.6087877,34.2608584,"{-86.638133,34.242728,-86.58631,34.290856}"
2020,0103724,place,"Bakerhill, AL",-85.2954084,31.7769227,"{-85.325761,31.749475,-85.253283,31.797017}"
2020,0103820,place,"Ballplay, AL",-85.8014777,34.0230465,"{-85.841083,33.960996,-85.737137,34.09531}"
2020,0103940,place,"Banks, AL",-85.8364335,31.8132641,"{-85.857979,31.799784,-85.819156,31.82324}"
2020,0104660,place,"Bay Minette, AL",-87.7913063,30.8944358,"{-87.860753,30.784041,-87.716744,30.970944}"
2020,0104684,place,"Bayou La Batre, AL",-88.2632709,30.407586,"{-88.295954,30.379826,-88.225501,30.443634}"
2020,0104852,place,"Bear Creek, AL",-87.7133988,34.2554809,"{-87.761172,34.234599,-87.673407,34.302855}"
2020,0104900,place,"Beatrice, AL",-87.2090464,31.7333092,"{-87.217818,31.723041,-87.194229,31.743092}"
2020,0104948,place,"Beaverton, AL",-88.0217777,33.9354112,"{-88.039689,33.918345,-88.004017,33.95277}"
2020,0105140,place,"Belgreen, AL",-87.8616784,34.47454,"{-87.877641,34.462877,-87.855391,34.486817}"
2020,0105164,place,"Belk, AL",-87.9286102,33.6516405,"{-87.939019,33.630192,-87.916931,33.67039}"
2020,0105188,place,"Bellamy, AL",-88.1314811,32.4636582,"{-88.155048,32.443323,-88.104427,32.477596}"
2020,0105212,place,"Belle Fontaine, AL",-88.1059399,30.4894922,"{-88.123956,30.483317,-88.094478,30.501702}"
2020,0105692,place,"Benton, AL",-86.8175456,32.3079306,"{-86.823204,32.302324,-86.810802,32.313513}"
2020,0105812,place,"Berlin, AL",-86.7436181,34.1953957,"{-86.760153,34.171059,-86.733425,34.202342}"
2020,0105932,place,"Berry, AL",-87.609311,33.6667018,"{-87.639099,33.630166,-87.583412,33.696601}"
2020,0105980,place,"Bessemer, AL",-86.9715222,33.3708576,"{-87.070544,33.300618,-86.873777,33.449874}"
2020,0106460,place,"Billingsley, AL",-86.7067132,32.6647107,"{-86.726963,32.651727,-86.696351,32.669639}"
2020,0107000,place,"Birmingham, AL",-86.7970356,33.5271744,"{-87.122638,33.384208,-86.578305,33.678587}"
2020,0107120,place,"Black, AL",-85.7444199,31.0097704,"{-85.760808,30.994741,-85.727091,31.024801}"
2020,0107456,place,"Blountsville, AL",-86.5839177,34.0758377,"{-86.608139,34.046132,-86.563998,34.108085}"
2020,0107588,place,"Blue Ridge, AL",-86.1824364,32.4989004,"{-86.216001,32.46914,-86.15728,32.530158}"
2020,0107672,place,"Blue Springs, AL",-85.5035265,31.6635156,"{-85.521184,31.652,-85.487651,31.675109}"
2020,0107912,place,"Boaz, AL",-86.1551515,34.1990204,"{-86.194119,34.139419,-86.105611,34.237427}"
2020,0108104,place,"Boligee, AL",-88.02859,32.7680809,"{-88.04081,32.740037,-88.005766,32.80405}"
2020,0108248,place,"Bon Air, AL",-86.3271475,33.2593704,"{-86.344548,33.255167,-86.31971,33.269596}"
2020,0108272,place,"Bon Secour, AL",-87.7243898,30.3182457,"{-87.745671,30.296287,-87.706421,30.341131}"
2020,0108680,place,"Boykin, AL",-87.2943433,32.0683752,"{-87.314132,32.055549,-87.26827,32.086458}"
2020,0109016,place,"Brantley, AL",-86.2567836,31.5819924,"{-86.274071,31.567809,-86.239846,31.596704}"
2020,0109064,place,"Brantleyville, AL",-86.8825215,33.2193035,"{-86.899109,33.204754,-86.862446,33.230757}"
2020,0109136,place,"Brent, AL",-87.1720877,32.9448933,"{-87.204744,32.908008,-87.14866,32.983407}"
2020,0109208,place,"Brewton, AL",-87.0765833,31.1091749,"{-87.124211,31.038984,-87.03901,31.169624}"
2020,0109328,place,"Bridgeport, AL",-85.7237654,34.9493119,"{-85.78624,34.91613,-85.695081,34.986726}"
2020,0109400,place,"Brighton, AL",-86.9454041,33.439551,"{-86.957978,33.424711,-86.928749,33.450263}"
2020,0109424,place,"Brilliant, AL",-87.7690468,34.0256705,"{-87.832696,33.967829,-87.73217,34.085373}"
2020,0109457,place,"Bristow Cove, AL",-86.2409934,34.109216,"{-86.303516,34.078893,-86.189779,34.142895}"
2020,0109500,place,"Brook Highland, AL",-86.6848798,33.4403785,"{-86.705952,33.418101,-86.665464,33.451967}"
2020,0109736,place,"Brookside, AL",-86.9063142,33.6346166,"{-86.936423,33.603679,-86.869436,33.657986}"
2020,0109808,place,"Brookwood, AL",-87.331488,33.2398424,"{-87.375272,33.188482,-87.26382,33.29484}"
2020,0109880,place,"Broomtown, AL",-85.5321123,34.3657277,"{-85.564602,34.348665,-85.504332,34.381217}"
2020,0110240,place,"Brundidge, AL",-85.8175502,31.7176386,"{-85.855186,31.688013,-85.789305,31.741647}"
2020,0110456,place,"Bucks, AL",-88.026385,31.016881,"{-88.028686,31.007262,-88.019853,31.024491}"
2020,0111032,place,"Butler, AL",-88.2107807,32.0964794,"{-88.25525,32.068252,-88.169986,32.126579}"
2020,0111416,place,"Calera, AL",-86.7456439,33.1223194,"{-86.812278,33.058172,-86.655677,33.190178}"
2020,0111488,place,"Calvert, AL",-88.0215495,31.149898,"{-88.032974,31.143871,-87.998273,31.169161}"
2020,0111512,place,"Camden, AL",-87.2889498,31.9984934,"{-87.319408,31.987618,-87.26812,32.020899}"
2020,0111680,place,"Camp Hill, AL",-85.6558335,32.7973267,"{-85.679834,32.778146,-85.627496,32.822331}"
2020,0112016,place,"Carbon Hill, AL",-87.5220778,33.894991,"{-87.545092,33.866596,-87.492762,33.917197}"
2020,0112040,place,"Cardiff, AL",-86.9306366,33.6472903,"{-86.935115,33.643136,-86.926654,33.650676}"
2020,0112070,place,"Carlisle-Rockledge, AL",-86.1240725,34.1144505,"{-86.156773,34.066758,-86.078404,34.154478}"
2020,0112112,place,"Carlton, AL",-87.835666,31.3485713,"{-87.864071,31.324715,-87.812976,31.363758}"
2020,0112160,place,"Carolina, AL",-86.5210009,31.2341499,"{-86.531186,31.226227,-86.510875,31.244526}"
2020,0112304,place,"Carrollton, AL",-88.0950712,33.2619035,"{-88.112721,33.247155,-88.077441,33.276708}"
2020,0112496,place,"Castleberry, AL",-87.0291292,31.2996776,"{-87.039191,31.287133,-87.015742,31.316}"
2020,0112544,place,"Catherine, AL",-87.4699781,32.1861704,"{-87.483439,32.166824,-87.455502,32.203551}"
2020,0112760,place,"Cedar Bluff, AL",-85.5885654,34.2214223,"{-85.642827,34.188596,-85.540338,34.255787}"
2020,0113264,place,"Center Point, AL",-86.6845668,33.6439031,"{-86.717417,33.61862,-86.650848,33.67559}"
2020,0113648,place,"Centre, AL",-85.6716834,34.1530593,"{-85.746569,34.108893,-85.627987,34.19043}"
2020,0113672,place,"Centreville, AL",-87.1320431,32.958967,"{-87.168425,32.930553,-87.075755,32.999211}"
2020,0114008,place,"Chatom, AL",-88.2460188,31.4691454,"{-88.278588,31.442804,-88.19633,31.49404}"
2020,0114104,place,"Chelsea, AL",-86.6295188,33.326887,"{-86.722443,33.275509,-86.547899,33.377087}"
2020,0114152,place,"Cherokee, AL",-87.9655891,34.7577002,"{-87.984199,34.745401,-87.953328,34.771469}"
2020,0114392,place,"Chickasaw, AL",-88.0796971,30.7714495,"{-88.101188,30.753335,-88.04772,30.79175}"
2020,0114464,place,"Childersburg, AL",-86.3408438,33.2925489,"{-86.395159,33.209342,-86.295694,33.356864}"
2020,0114728,place,"Choccolocco, AL",-85.707191,33.6677275,"{-85.746729,33.632352,-85.683619,33.705019}"
2020,0114968,place,"Chunchula, AL",-88.2082,30.9271941,"{-88.219302,30.911972,-88.195053,30.936702}"
2020,0115064,place,"Citronelle, AL",-88.2498429,31.0972688,"{-88.326058,31.041404,-88.164206,31.144025}"
2020,0115136,place,"Clanton, AL",-86.6194937,32.8455725,"{-86.684386,32.787541,-86.557822,32.913979}"
2020,0115256,place,"Clay, AL",-86.6081819,33.6965832,"{-86.665126,33.644238,-86.542568,33.754306}"
2020,0115304,place,"Clayhatchee, AL",-85.7214778,31.236925,"{-85.735457,31.227747,-85.679539,31.26446}"
2020,0115376,place,"Clayton, AL",-85.4604536,31.8822767,"{-85.507686,31.860796,-85.415472,31.908123}"
2020,0115472,place,"Cleveland, AL",-86.5613518,34.0021791,"{-86.59657,33.964391,-86.540699,34.027851}"
2020,0115640,place,"Clio, AL",-85.6110391,31.7085157,"{-85.653995,31.675524,-85.567519,31.734728}"
2020,0116000,place,"Coaling, AL",-87.3498873,33.1699014,"{-87.393091,33.149297,-87.304779,33.188779}"
2020,0116080,place,"Coats Bend, AL",-85.8746016,34.0732735,"{-85.919948,34.051904,-85.825728,34.10722}"
2020,0116240,place,"Coffee Springs, AL",-85.9108977,31.1658359,"{-85.918867,31.158988,-85.901817,31.173739}"
2020,0116264,place,"Coffeeville, AL",-88.0860494,31.7665645,"{-88.106359,31.742476,-88.066106,31.787553}"
2020,0116312,place,"Coker, AL",-87.6813292,33.2437518,"{-87.7033,33.229912,-87.655393,33.258165}"
2020,0116600,place,"Collinsville, AL",-85.8686097,34.2672242,"{-85.896914,34.241268,-85.831964,34.294815}"
2020,0116684,place,"Colony, AL",-86.9020005,33.9413934,"{-86.927625,33.923199,-86.870998,33.960196}"
2020,0116744,place,"Columbia, AL",-85.1102016,31.2953514,"{-85.139535,31.276302,-85.087643,31.308677}"
2020,0116768,place,"Columbiana, AL",-86.6156184,33.1914517,"{-86.713959,33.142923,-86.556847,33.241476}"
2020,0116936,place,"Concord, AL",-87.0404293,33.4619875,"{-87.060708,33.454715,-87.01693,33.481717}"
2020,0117176,place,"Coosada, AL",-86.3265431,32.4953941,"{-86.356325,32.467912,-86.307299,32.537983}"
2020,0117368,place,"Cordova, AL",-87.1994156,33.7617881,"{-87.220054,33.744732,-87.15721,33.786762}"
2020,0117704,place,"Cottondale, AL",-87.4548608,33.1930468,"{-87.473375,33.173374,-87.427406,33.210081}"
2020,0117824,place,"Cottonwood, AL",-85.2995597,31.0540333,"{-85.327334,31.034835,-85.282172,31.075896}"
2020,0117968,place,"County Line, AL",-86.7194667,33.8207245,"{-86.74081,33.811027,-86.69193,33.832332}"
2020,0118040,place,"Courtland, AL",-87.3278925,34.6699456,"{-87.361799,34.659814,-87.282511,34.683357}"
2020,0118088,place,"Cowarts, AL",-85.309769,31.2062481,"{-85.333173,31.176712,-85.28132,31.225051}"
2020,0118304,place,"Creola, AL",-88.0095357,30.8742491,"{-88.068747,30.858553,-87.957587,30.924637}"
2020,0118856,place,"Crossville, AL",-85.9997368,34.2826972,"{-86.054709,34.265339,-85.925738,34.304686}"
2020,0118952,place,"Cuba, AL",-88.374798,32.4407329,"{-88.390078,32.422095,-88.359923,32.458287}"
2020,0118976,place,"Cullman, AL",-86.8406556,34.1768698,"{-86.900245,34.100745,-86.777146,34.25071}"
2020,0119024,place,"Cullomburg, AL",-88.2917744,31.713061,"{-88.316184,31.684283,-88.271415,31.74181}"
2020,0119216,place,"Cusseta, AL",-85.3057688,32.7876374,"{-85.324325,32.772358,-85.287888,32.799425}"
2020,0119336,place,"Dadeville, AL",-85.7762009,32.8261139,"{-85.817786,32.805472,-85.706534,32.869591}"
2020,0119360,place,"Daleville, AL",-85.7117111,31.2915332,"{-85.752389,31.239197,-85.641281,31.344022}"
2020,0119648,place,"Daphne, AL",-87.8839916,30.6277019,"{-87.925219,30.567366,-87.803709,30.676768}"
2020,0119744,place,"Dauphin Island, AL",-88.1712682,30.2509134,"{-88.392143,30.198254,-88.026773,30.312888}"
2020,0119816,place,"Daviston, AL",-85.6343285,33.0568385,"{-85.663287,33.03351,-85.610871,33.077728}"
2020,0119912,place,"Dayton, AL",-87.6415726,32.3509575,"{-87.650145,32.343531,-87.632935,32.358275}"
2020,0120008,place,"Deatsville, AL",-86.3890586,32.5890438,"{-86.41252,32.554215,-86.368943,32.612625}"
2020,0120104,place,"Decatur, AL",-86.9899008,34.5729952,"{-87.105501,34.486294,-86.897285,34.670864}"
2020,0120152,place,"Deer Park, AL",-88.3280229,31.2183694,"{-88.350113,31.201586,-88.301758,31.238778}"
2020,0120272,place,"Delta, AL",-85.6759051,33.4405242,"{-85.700403,33.404063,-85.644193,33.47881}"
2020,0120296,place,"Demopolis, AL",-87.826678,32.4997443,"{-87.894861,32.46595,-87.761962,32.532821}"
2020,0120392,place,"Detroit, AL",-88.1678308,34.0273794,"{-88.184209,34.020475,-88.154803,34.038462}"
2020,0120955,place,"Dodge City, AL",-86.8855239,34.0432753,"{-86.919417,34.018676,-86.856215,34.069287}"
2020,0121136,place,"Dora, AL",-87.0812917,33.7281156,"{-87.113148,33.69318,-87.057888,33.758968}"
2020,0121184,place,"Dothan, AL",-85.4068225,31.2336983,"{-85.51966,31.126217,-85.294087,31.333962}"
2020,0121280,place,"Double Springs, AL",-87.3894471,34.1496478,"{-87.426455,34.122363,-87.308059,34.174306}"
2020,0121328,place,"Douglas, AL",-86.3233857,34.1682576,"{-86.354486,34.153854,-86.287402,34.187362}"
2020,0121448,place,"Dozier, AL",-86.3692352,31.5054066,"{-86.393183,31.484108,-86.355582,31.515755}"
2020,0121890,place,"Dunnavant, AL",-86.5404806,33.4950107,"{-86.621887,33.440011,-86.481549,33.546156}"
2020,0121952,place,"Dutton, AL",-85.9118498,34.6061524,"{-85.922703,34.597826,-85.90066,34.614562}"
2020,0122088,place,"Eagle Point, AL",-86.6767527,33.4009117,"{-86.701476,33.367989,-86.663494,33.411269}"
2020,0122216,place,"East Brewton, AL",-87.055345,31.0914404,"{-87.077017,31.073184,-87.032797,31.109932}"
2020,0122504,place,"East Point, AL",-86.7918995,34.1908799,"{-86.803895,34.176574,-86.784722,34.198713}"
2020,0122816,place,"Eclectic, AL",-86.0410625,32.6402222,"{-86.075786,32.609623,-86.006,32.674128}"
2020,0123032,place,"Edgewater, AL",-86.9527897,33.5300993,"{-86.969759,33.517758,-86.94464,33.537581}"
2020,0123176,place,"Edwardsville, AL",-85.4141243,33.8837398,"{-85.523934,33.695653,-85.388784,33.927144}"
2020,0123224,place,"Egypt, AL",-86.1650536,34.0759381,"{-86.189265,34.044409,-86.132907,34.110487}"
2020,0123296,place,"Elba, AL",-86.0771151,31.417218,"{-86.127766,31.367909,-86.012781,31.456096}"
2020,0123320,place,"Elberta, AL",-87.5957293,30.3737534,"{-87.623964,30.334295,-87.526579,30.467847}"
2020,0123344,place,"Eldridge, AL",-87.6201082,33.9220177,"{-87.627266,33.911259,-87.609839,33.929628}"
2020,0123488,place,"Elkmont, AL",-86.9769708,34.9326041,"{-86.990347,34.918275,-86.964251,34.937645}"
2020,0123656,place,"Elmore, AL",-86.3410246,32.5566058,"{-86.382203,32.518543,-86.301588,32.583532}"
2020,0123872,place,"Emelle, AL",-88.3164862,32.7286776,"{-88.319243,32.721766,-88.31259,32.733669}"
2020,0123880,place,"Emerald Mountain, AL",-86.0943808,32.447694,"{-86.136224,32.406036,-86.032344,32.478491}"
2020,0124184,place,"Enterprise, AL",-85.8440213,31.3268985,"{-85.89619,31.265126,-85.777789,31.386585}"
2020,0124256,place,"Epes, AL",-88.1419629,32.6950494,"{-88.167195,32.655141,-88.110049,32.720878}"
2020,0124280,place,"Equality, AL",-86.1231847,32.7656589,"{-86.154734,32.754092,-86.061013,32.781456}"
2020,0124472,place,"Ethelsville, AL",-88.2160933,33.4140664,"{-88.222643,33.40852,-88.209442,33.419736}"
2020,0124568,place,"Eufaula, AL",-85.1527087,31.9099374,"{-85.27987,31.781378,-85.048825,32.029122}"
2020,0124616,place,"Eunola, AL",-85.8339663,31.0313906,"{-85.855723,31.020016,-85.826216,31.045999}"
2020,0124664,place,"Eutaw, AL",-87.9003315,32.8462465,"{-87.940579,32.810556,-87.859077,32.878158}"
2020,0124688,place,"Eva, AL",-86.7653182,34.3265045,"{-86.789026,34.306557,-86.72289,34.35277}"
2020,0124808,place,"Evergreen, AL",-86.9760809,31.433216,"{-87.045512,31.396086,-86.923334,31.466692}"
2020,0124880,place,"Excel, AL",-87.3436633,31.4263861,"{-87.353901,31.412902,-87.326914,31.43513}"
2020,0125120,place,"Fairfield, AL",-86.9194129,33.4747785,"{-86.942105,33.451779,-86.904479,33.500891}"
2020,0125216,place,"Fairford, AL",-88.072784,31.1780024,"{-88.093528,31.160353,-88.052257,31.19283}"
2020,0125240,place,"Fairhope, AL",-87.879122,30.52092,"{-87.924977,30.443873,-87.835414,30.582235}"
2020,0125384,place,"Fairview, AL",-86.6777238,34.2501953,"{-86.703581,34.229537,-86.670076,34.268619}"
2020,0125648,place,"Falkville, AL",-86.9095474,34.3770191,"{-86.926154,34.362938,-86.886087,34.404319}"
2020,0125816,place,"Faunsdale, AL",-87.5937886,32.4576144,"{-87.598983,32.453231,-87.587426,32.462119}"
2020,0125840,place,"Fayette, AL",-87.831169,33.6942153,"{-87.855101,33.654504,-87.806831,33.73275}"
2020,0125864,place,"Fayetteville, AL",-86.4427744,33.168097,"{-86.50359,33.132796,-86.341232,33.202038}"
2020,0126152,place,"Fitzpatrick, AL",-85.8736932,32.2103774,"{-85.899944,32.187021,-85.860152,32.232042}"
2020,0126200,place,"Five Points, AL",-85.351592,33.0173114,"{-85.360632,33.009998,-85.342658,33.024633}"
2020,0126824,place,"Flomaton, AL",-87.2560158,31.0148156,"{-87.284677,30.996447,-87.227038,31.035793}"
2020,0126848,place,"Florala, AL",-86.3181523,31.0223906,"{-86.35023,30.993694,-86.271193,31.049494}"
2020,0126896,place,"Florence, AL",-87.6661386,34.8303226,"{-87.722481,34.778962,-87.570095,34.891873}"
2020,0126992,place,"Foley, AL",-87.6642111,30.3970092,"{-87.749884,30.330147,-87.602398,30.472856}"
2020,0127088,place,"Forestdale, AL",-86.9000467,33.5737011,"{-86.93472,33.548272,-86.867821,33.599937}"
2020,0127376,place,"Forkland, AL",-87.8674355,32.6474351,"{-87.888901,32.628867,-87.84506,32.665405}"
2020,0127520,place,"Fort Deposit, AL",-86.5663586,31.9862606,"{-86.594662,31.971247,-86.520886,32.000475}"
2020,0127616,place,"Fort Payne, AL",-85.6894469,34.4573293,"{-85.780676,34.370061,-85.603982,34.539425}"
2020,0127640,place,"Fort Rucker, AL",-85.7160719,31.3425758,"{-85.746525,31.314177,-85.675689,31.385281}"
2020,0128024,place,"Franklin, AL",-85.7854099,32.4526927,"{-85.847313,32.41388,-85.744718,32.479711}"
2020,0128120,place,"Fredonia, AL",-85.2923055,32.983577,"{-85.342787,32.939859,-85.24803,33.021217}"
2020,0128312,place,"Frisco City, AL",-87.4041818,31.439485,"{-87.420875,31.420412,-87.386455,31.450003}"
2020,0128408,place,"Fruitdale, AL",-88.4109367,31.3497904,"{-88.444197,31.323981,-88.382512,31.357793}"
2020,0128432,place,"Fruithurst, AL",-85.4312488,33.7295395,"{-85.444971,33.722003,-85.420006,33.738575}"
2020,0128504,place,"Fulton, AL",-87.7442119,31.7909894,"{-87.763304,31.776321,-87.712944,31.80888}"
2020,0128552,place,"Fultondale, AL",-86.8014361,33.617363,"{-86.848547,33.578822,-86.73938,33.679015}"
2020,0128672,place,"Fyffe, AL",-85.905167,34.4489572,"{-85.932469,34.422077,-85.872685,34.477059}"
2020,0128696,place,"Gadsden, AL",-86.0160783,34.0065967,"{-86.110294,33.946428,-85.934601,34.079332}"
2020,0128768,place,"Gainesville, AL",-88.1607913,32.814934,"{-88.169889,32.802734,-88.149736,32.829597}"
2020,0128816,place,"Gallant, AL",-86.2301709,34.0013181,"{-86.290011,33.965604,-86.177443,34.03715}"
2020,0128936,place,"Gantt, AL",-86.4835237,31.4107399,"{-86.489476,31.398294,-86.476686,31.420361}"
2020,0129032,place,"Garden City, AL",-86.7490538,34.0146877,"{-86.75784,33.996735,-86.736688,34.033673}"
2020,0129056,place,"Gardendale, AL",-86.8098439,33.6765865,"{-86.873317,33.62271,-86.747919,33.732376}"
2020,0129296,place,"Gaylesville, AL",-85.5612481,34.2674437,"{-85.582811,34.25383,-85.546128,34.27658}"
2020,0129392,place,"Geiger, AL",-88.318154,32.868715,"{-88.325789,32.859432,-88.301361,32.874909}"
2020,0129464,place,"Geneva, AL",-85.876818,31.0448857,"{-85.917436,31.001983,-85.839719,31.087048}"
2020,0129560,place,"Georgiana, AL",-86.7467621,31.6391342,"{-86.7783,31.618518,-86.722969,31.655587}"
2020,0129608,place,"Geraldine, AL",-86.0025792,34.3590869,"{-86.021965,34.337881,-85.984475,34.378281}"
2020,0129704,place,"Gilbertown, AL",-88.3075453,31.8662468,"{-88.345489,31.83567,-88.278074,31.888541}"
2020,0129944,place,"Glen Allen, AL",-87.732682,33.8921075,"{-87.764187,33.826936,-87.65211,33.937741}"
2020,0129992,place,"Glencoe, AL",-85.9336056,33.9483393,"{-85.986226,33.895523,-85.886477,34.004638}"
2020,0130160,place,"Glenwood, AL",-86.1736865,31.6712662,"{-86.180975,31.659373,-86.165789,31.676099}"
2020,0130448,place,"Goldville, AL",-85.7779821,33.0848669,"{-85.792838,33.075951,-85.773292,33.092233}"
2020,0130496,place,"Good Hope, AL",-86.8661784,34.1103299,"{-86.901593,34.083644,-86.827227,34.148284}"
2020,0130640,place,"Goodwater, AL",-86.0524864,33.0607127,"{-86.069962,33.037899,-86.03356,33.083899}"
2020,0130736,place,"Gordo, AL",-87.9036812,33.3222863,"{-87.927841,33.308812,-87.887475,33.335011}"
2020,0130760,place,"Gordon, AL",-85.0925038,31.1436055,"{-85.114183,31.131788,-85.075802,31.161041}"
2020,0130808,place,"Gordonville, AL",-86.7042347,32.1591791,"{-86.735425,32.123789,-86.654182,32.166964}"
2020,0130880,place,"Goshen, AL",-86.1232453,31.720015,"{-86.13707,31.703498,-86.1132,31.732584}"
2020,0131000,place,"Graham, AL",-85.3230847,33.4551913,"{-85.359937,33.430487,-85.297637,33.477417}"
2020,0131024,place,"Grand Bay, AL",-88.3444009,30.472082,"{-88.387741,30.450832,-88.309583,30.4936}"
2020,0131096,place,"Grant, AL",-86.2604297,34.5181726,"{-86.28283,34.456932,-86.192514,34.537714}"
2020,0131348,place,"Grayson Valley, AL",-86.6416559,33.6466224,"{-86.662203,33.634157,-86.626708,33.663893}"
2020,0131384,place,"Graysville, AL",-86.9413975,33.633756,"{-87.015473,33.607164,-86.919906,33.709498}"
2020,0131720,place,"Greensboro, AL",-87.5937002,32.700968,"{-87.612024,32.687524,-87.572777,32.716273}"
2020,0131912,place,"Greenville, AL",-86.6369515,31.8430722,"{-86.70243,31.801939,-86.573621,31.912161}"
2020,0132056,place,"Grimes, AL",-85.4502892,31.299875,"{-85.460404,31.290094,-85.43878,31.311917}"
2020,0132080,place,"Grove Hill, AL",-87.7728675,31.6986703,"{-87.794809,31.670463,-87.740192,31.743569}"
2020,0132224,place,"Guin, AL",-87.9023629,33.9832195,"{-87.947691,33.919428,-87.825123,34.042874}"
2020,0132248,place,"Gulfcrest, AL",-88.2422312,30.9911062,"{-88.25175,30.976285,-88.230422,31.004467}"
2020,0132272,place,"Gulf Shores, AL",-87.7012579,30.2758365,"{-87.801752,30.23023,-87.623193,30.333955}"
2020,0132416,place,"Guntersville, AL",-86.2523225,34.3679473,"{-86.3716,34.293621,-86.118937,34.447704}"
2020,0132440,place,"Gurley, AL",-86.3743295,34.7024708,"{-86.395396,34.672537,-86.35823,34.732039}"
2020,0132536,place,"Gu-Win, AL",-87.8703764,33.9443303,"{-87.885782,33.915729,-87.854489,33.967238}"
2020,0132560,place,"Hackleburg, AL",-87.8304018,34.2693553,"{-87.896679,34.222313,-87.765146,34.311113}"
2020,0132584,place,"Hackneyville, AL",-85.9344235,33.0546536,"{-85.970945,33.0253,-85.901476,33.084995}"
2020,0132656,place,"Haleburg, AL",-85.1380681,31.4099758,"{-85.155248,31.39499,-85.121091,31.424123}"
2020,0132704,place,"Haleyville, AL",-87.6175738,34.2338324,"{-87.661556,34.17185,-87.587035,34.289104}"
2020,0132848,place,"Hamilton, AL",-87.9708334,34.1387129,"{-88.065957,34.04112,-87.887831,34.188663}"
2020,0132896,place,"Hammondville, AL",-85.6403484,34.566232,"{-85.666877,34.536134,-85.61846,34.599023}"
2020,0132968,place,"Hanceville, AL",-86.7644356,34.0640098,"{-86.794161,34.033466,-86.731052,34.085174}"
2020,0133064,place,"Hanover, AL",-86.200931,33.0029224,"{-86.216763,32.987236,-86.180137,33.017789}"
2020,0133256,place,"Harpersville, AL",-86.428431,33.3177254,"{-86.487115,33.265721,-86.37905,33.371604}"
2020,0133424,place,"Hartford, AL",-85.6912249,31.1053477,"{-85.71348,31.085653,-85.666926,31.122343}"
2020,0133448,place,"Hartselle, AL",-86.9403642,34.4404338,"{-87.003219,34.398342,-86.890529,34.487323}"
2020,0133472,place,"Harvest, AL",-86.758643,34.8550699,"{-86.784959,34.830652,-86.713706,34.882126}"
2020,0133544,place,"Hatton, AL",-87.4138348,34.5606707,"{-87.423483,34.546928,-87.40307,34.574355}"
2020,0133640,place,"Hayden, AL",-86.744224,33.894514,"{-86.93651,33.826236,-86.656951,33.982776}"
2020,0133712,place,"Hayneville, AL",-86.5785879,32.1825948,"{-86.591649,32.172776,-86.566046,32.191476}"
2020,0133808,place,"Hazel Green, AL",-86.5673916,34.9236557,"{-86.600525,34.902704,-86.53204,34.949192}"
2020,0133856,place,"Headland, AL",-85.3570308,31.354974,"{-85.41739,31.311643,-85.297119,31.396356}"
2020,0133904,place,"Heath, AL",-86.4690503,31.3448385,"{-86.474542,31.339481,-86.459458,31.372985}"
2020,0133976,place,"Heflin, AL",-85.5693387,33.6473996,"{-85.61628,33.609656,-85.49563,33.683071}"
2020,0134024,place,"Helena, AL",-86.8791769,33.2834239,"{-86.973934,33.23329,-86.815046,33.332158}"
2020,0134096,place,"Henagar, AL",-85.7309183,34.6306405,"{-85.794918,34.594561,-85.68892,34.675922}"
2020,0134480,place,"Highland Lake, AL",-86.4225527,33.8945865,"{-86.437779,33.874845,-86.411429,33.903959}"
2020,0134490,place,"Highland Lakes, AL",-86.6479203,33.3976107,"{-86.668354,33.373341,-86.626862,33.423202}"
2020,0134816,place,"Hillsboro, AL",-87.1784894,34.6425858,"{-87.200033,34.629186,-87.168316,34.649367}"
2020,0134984,place,"Hissop, AL",-86.1296013,32.8905684,"{-86.168329,32.842627,-86.084276,32.914585}"
2020,0135130,place,"Hobson, AL",-88.1509283,31.4887252,"{-88.17617,31.461877,-88.128083,31.494421}"
2020,0135152,place,"Hobson City, AL",-85.8461462,33.6188012,"{-85.882065,33.596866,-85.83447,33.62585}"
2020,0135200,place,"Hodges, AL",-87.9231597,34.3342457,"{-87.946423,34.312676,-87.915185,34.361465}"
2020,0135392,place,"Hokes Bluff, AL",-85.8628729,33.9896823,"{-85.935751,33.956365,-85.798038,34.023331}"
2020,0135512,place,"Hollins, AL",-86.1269672,33.1217571,"{-86.17437,33.104394,-86.076812,33.150885}"
2020,0135536,place,"Hollis Crossroads, AL",-85.6528615,33.5313328,"{-85.680793,33.495373,-85.60086,33.55557}"
2020,0135560,place,"Holly Pond, AL",-86.6120674,34.1676864,"{-86.642171,34.148387,-86.585159,34.192372}"
2020,0135632,place,"Hollywood, AL",-85.9655793,34.7172788,"{-85.990865,34.686136,-85.901792,34.764493}"
2020,0135704,place,"Holt, AL",-87.4828945,33.2297452,"{-87.504475,33.200366,-87.461565,33.25076}"
2020,0135752,place,"Holtville, AL",-86.3280044,32.630299,"{-86.399855,32.591167,-86.250766,32.672367}"
2020,0135800,place,"Homewood, AL",-86.8096502,33.4585496,"{-86.848865,33.426504,-86.768055,33.488753}"
2020,0135896,place,"Hoover, AL",-86.8055789,33.3769487,"{-86.926151,33.267285,-86.608839,33.468729}"
2020,0136088,place,"Horn Hill, AL",-86.3251632,31.2381374,"{-86.347879,31.21411,-86.290792,31.263976}"
2020,0136448,place,"Hueytown, AL",-87.0165645,33.4086036,"{-87.079803,33.378401,-86.951576,33.468868}"
2020,0136592,place,"Huguley, AL",-85.2396355,32.8430621,"{-85.275245,32.81365,-85.200525,32.868313}"
2020,0137000,place,"Huntsville, AL",-86.5325989,34.7822752,"{-86.93117,34.533427,-86.399333,34.86516}"
2020,0137096,place,"Hurtsboro, AL",-85.4146703,32.2400898,"{-85.425319,32.231195,-85.402425,32.248863}"
2020,0137264,place,"Hytop, AL",-86.089176,34.8966355,"{-86.10746,34.84751,-86.067069,34.989514}"
2020,0137312,place,"Ider, AL",-85.6689584,34.7025987,"{-85.690446,34.671388,-85.635508,34.729786}"
2020,0137465,place,"Indian Springs Village, AL",-86.7468559,33.361209,"{-86.774265,33.337024,-86.710788,33.385613}"
2020,0137864,place,"Irondale, AL",-86.6590824,33.5399144,"{-86.722214,33.48944,-86.5868,33.60163}"
2020,0138032,place,"Ivalee, AL",-86.1471817,34.0372037,"{-86.18508,34.009939,-86.110633,34.064548}"
2020,0138152,place,"Jackson, AL",-87.8911826,31.5323206,"{-87.936326,31.491672,-87.853652,31.582973}"
2020,0138248,place,"Jacksons' Gap, AL",-85.8150462,32.8840189,"{-85.859761,32.863463,-85.782162,32.906247}"
2020,0138272,place,"Jacksonville, AL",-85.7552174,33.8100663,"{-85.786585,33.773998,-85.707329,33.849674}"
2020,0138416,place,"Jasper, AL",-87.2702683,33.8560346,"{-87.361896,33.790283,-87.203975,33.914714}"
2020,0138608,place,"Jemison, AL",-86.7330701,32.9707054,"{-86.767253,32.933422,-86.677643,33.007863}"
2020,0139064,place,"Joppa, AL",-86.5499459,34.2995501,"{-86.570487,34.289891,-86.531136,34.309318}"
2020,0139280,place,"Kansas, AL",-87.5565979,33.9028076,"{-87.575769,33.896833,-87.544634,33.911967}"
2020,0139472,place,"Kellyton, AL",-86.0346082,32.9791885,"{-86.043745,32.965227,-86.025955,32.987409}"
2020,0139520,place,"Kennedy, AL",-87.9860342,33.5809601,"{-88.016067,33.559281,-87.961684,33.594865}"
2020,0139784,place,"Killen, AL",-87.5293458,34.8609537,"{-87.561611,34.84983,-87.49242,34.869358}"
2020,0139856,place,"Kimberly, AL",-86.800593,33.7803115,"{-86.84956,33.756402,-86.751626,33.804221}"
2020,0140072,place,"Kinsey, AL",-85.3349942,31.2962692,"{-85.37375,31.261785,-85.297445,31.314519}"
2020,0140096,place,"Kinston, AL",-86.1700752,31.2196038,"{-86.185334,31.198282,-86.155418,31.240374}"
2020,0140648,place,"Ladonia, AL",-85.0904229,32.4597086,"{-85.11242,32.447781,-85.059092,32.472977}"
2020,0140672,place,"La Fayette, AL",-85.4007947,32.8994267,"{-85.426545,32.877783,-85.374397,32.921889}"
2020,0140888,place,"Lakeview, AL",-85.9755734,34.3916754,"{-85.991303,34.378226,-85.960467,34.403854}"
2020,0140928,place,"Lake View, AL",-87.1326535,33.2882658,"{-87.153695,33.26568,-87.068869,33.294671}"
2020,0141296,place,"Lanett, AL",-85.2077611,32.8577677,"{-85.27491,32.753723,-85.178508,32.893754}"
2020,0141368,place,"Langston, AL",-86.09335,34.5450626,"{-86.128781,34.512547,-86.055065,34.558636}"
2020,0141968,place,"Leeds, AL",-86.5714476,33.546847,"{-86.626163,33.485699,-86.49893,33.590697}"
2020,0142016,place,"Leesburg, AL",-85.7778969,34.1786267,"{-85.807791,34.160524,-85.744679,34.208706}"
2020,0142160,place,"Leighton, AL",-87.5242822,34.6936802,"{-87.546695,34.677291,-87.511424,34.705946}"
2020,0142304,place,"Leroy, AL",-87.9727728,31.4949706,"{-88.008547,31.457198,-87.931601,31.530203}"
2020,0142352,place,"Lester, AL",-87.1555343,34.9827511,"{-87.163462,34.97148,-87.139622,34.998066}"
2020,0142472,place,"Level Plains, AL",-85.7687223,31.3071239,"{-85.791167,31.283879,-85.745047,31.335422}"
2020,0142640,place,"Lexington, AL",-87.3728296,34.9593505,"{-87.394638,34.932533,-87.348562,34.987854}"
2020,0142808,place,"Libertyville, AL",-86.4569553,31.2400501,"{-86.467706,31.234207,-86.450313,31.252262}"
2020,0142928,place,"Lillian, AL",-87.420751,30.4189038,"{-87.455206,30.394598,-87.404595,30.425108}"
2020,0143120,place,"Lincoln, AL",-86.1278758,33.5801687,"{-86.235064,33.489213,-86.019493,33.670087}"
2020,0143240,place,"Linden, AL",-87.7925826,32.3013604,"{-87.816277,32.278627,-87.763943,32.325407}"
2020,0143264,place,"Lineville, AL",-85.752278,33.3128321,"{-85.798288,33.279465,-85.701691,33.363224}"
2020,0143336,place,"Lipscomb, AL",-86.9261031,33.4260051,"{-86.94403,33.416182,-86.913095,33.440599}"
2020,0143384,place,"Lisman, AL",-88.284092,32.1717293,"{-88.322871,32.161811,-88.271166,32.201485}"
2020,0143648,place,"Littleville, AL",-87.6707387,34.5951318,"{-87.68876,34.569966,-87.652541,34.614492}"
2020,0143720,place,"Livingston, AL",-88.1869293,32.5955487,"{-88.217452,32.560119,-88.165157,32.636305}"
2020,0143744,place,"Loachapoka, AL",-85.598479,32.6079461,"{-85.611236,32.597741,-85.580246,32.611966}"
2020,0143816,place,"Lockhart, AL",-86.3502729,31.0130109,"{-86.360354,31.005869,-86.339591,31.020243}"
2020,0143888,place,"Locust Fork, AL",-86.6470933,33.8767937,"{-86.656535,33.869898,-86.599342,33.920195}"
2020,0144160,place,"Lookout Mountain, AL",-85.9654638,34.1159156,"{-86.008034,34.050233,-85.908496,34.15658}"
2020,0144344,place,"Louisville, AL",-85.5583357,31.7810467,"{-85.578274,31.760401,-85.544823,31.804214}"
2020,0144536,place,"Lowndesboro, AL",-86.6108477,32.2764216,"{-86.621377,32.265514,-86.604625,32.287641}"
2020,0144608,place,"Loxley, AL",-87.7392128,30.6845882,"{-87.82141,30.600396,-87.647473,30.73865}"
2020,0144728,place,"Luverne, AL",-86.2690815,31.7189412,"{-86.300957,31.674163,-86.236987,31.767622}"
2020,0144800,place,"Lynn, AL",-87.548643,34.0575911,"{-87.584485,34.02094,-87.519433,34.101778}"
2020,0145040,place,"McCalla, AL",-87.0266602,33.3031116,"{-87.11101,33.246422,-86.948851,33.363601}"
2020,0145208,place,"McDonald Chapel, AL",-86.9384621,33.5185759,"{-86.948704,33.508772,-86.92926,33.531217}"
2020,0145316,place,"Macedonia, AL",-88.239221,33.403139,"{-88.259036,33.386516,-88.217444,33.41751}"
2020,0145472,place,"McIntosh, AL",-88.0283689,31.2649574,"{-88.037264,31.253503,-88.015892,31.271873}"
2020,0145496,place,"McKenzie, AL",-86.7259543,31.5464695,"{-86.744411,31.516586,-86.704373,31.57018}"
2020,0145640,place,"McMullen, AL",-88.1757492,33.1480998,"{-88.179577,33.146363,-88.171263,33.150068}"
2020,0145784,place,"Madison, AL",-86.7622802,34.7105329,"{-86.851011,34.662612,-86.70605,34.761623}"
2020,0145904,place,"Madrid, AL",-85.3992045,31.0356354,"{-85.416955,31.028244,-85.384383,31.04304}"
2020,0146072,place,"Magnolia Springs, AL",-87.775895,30.4034097,"{-87.784726,30.390413,-87.766814,30.41127}"
2020,0146192,place,"Malcolm, AL",-88.0010648,31.198697,"{-88.025576,31.180916,-87.981692,31.206326}"
2020,0146264,place,"Malvern, AL",-85.5229729,31.1436979,"{-85.56179,31.109961,-85.485294,31.17154}"
2020,0146504,place,"Maplesville, AL",-86.8766508,32.7882824,"{-86.890671,32.75741,-86.863508,32.808405}"
2020,0146600,place,"Marbury, AL",-86.4637279,32.672984,"{-86.524693,32.6415,-86.412877,32.708213}"
2020,0146696,place,"Margaret, AL",-86.463942,33.6728398,"{-86.509742,33.633644,-86.419975,33.707035}"
2020,0146768,place,"Marion, AL",-87.3173331,32.6319678,"{-87.349196,32.59957,-87.284151,32.672634}"
2020,0147728,place,"Maytown, AL",-87.0000428,33.5499544,"{-87.017864,33.526388,-86.984805,33.58276}"
2020,0147740,place,"Meadowbrook, AL",-86.7043734,33.3952345,"{-86.728956,33.369255,-86.676238,33.415799}"
2020,0147848,place,"Megargel, AL",-87.4306492,31.3781413,"{-87.43705,31.369611,-87.420345,31.384284}"
2020,0148052,place,"Memphis, AL",-88.305942,33.137044,"{-88.30887,33.132441,-88.291413,33.140079}"
2020,0148064,place,"Mentone, AL",-85.589704,34.5632088,"{-85.613627,34.551299,-85.565574,34.584572}"
2020,0148112,place,"Meridianville, AL",-86.5805593,34.8749129,"{-86.607312,34.836898,-86.535181,34.902756}"
2020,0148376,place,"Midfield, AL",-86.9224109,33.4552699,"{-86.95355,33.443737,-86.900384,33.471771}"
2020,0148400,place,"Midland City, AL",-85.493686,31.3156886,"{-85.518645,31.286772,-85.467316,31.335541}"
2020,0148424,place,"Midway, AL",-85.524417,32.0763726,"{-85.543323,32.065451,-85.505483,32.087397}"
2020,0148616,place,"Mignon, AL",-86.2568859,33.1865796,"{-86.285052,33.177999,-86.247283,33.212626}"
2020,0148712,place,"Millbrook, AL",-86.3739136,32.5014739,"{-86.419449,32.430811,-86.327617,32.570756}"
2020,0148784,place,"Millerville, AL",-85.929828,33.1914581,"{-85.959293,33.168729,-85.894298,33.215235}"
2020,0148808,place,"Millport, AL",-88.0823817,33.5559349,"{-88.11703,33.546281,-88.046589,33.572593}"
2020,0148832,place,"Millry, AL",-88.3279562,31.6211991,"{-88.356289,31.595539,-88.300302,31.654564}"
2020,0149072,place,"Minor, AL",-86.9400731,33.5390107,"{-86.948028,33.529815,-86.932072,33.545678}"
2020,0150000,place,"Mobile, AL",-88.1002261,30.668426,"{-88.276115,30.531025,-87.948547,30.844163}"
2020,0150192,place,"Monroeville, AL",-87.3277136,31.5162233,"{-87.366045,31.47337,-87.297545,31.545914}"
2020,0150312,place,"Montevallo, AL",-86.847702,33.1260535,"{-86.898264,33.083094,-86.813708,33.172137}"
2020,0151000,place,"Montgomery, AL",-86.2673072,32.3485029,"{-86.443,32.250547,-86.069161,32.437869}"
2020,0151096,place,"Moody, AL",-86.493786,33.6034288,"{-86.551917,33.549378,-86.433678,33.644559}"
2020,0151216,place,"Moores Mill, AL",-86.5203798,34.8521431,"{-86.554299,34.805542,-86.484822,34.902786}"
2020,0151264,place,"Mooresville, AL",-86.8800251,34.6258825,"{-86.884786,34.621139,-86.875717,34.630093}"
2020,0151456,place,"Morris, AL",-86.8007547,33.7462233,"{-86.827708,33.724463,-86.781025,33.762102}"
2020,0151469,place,"Morrison Crossroads, AL",-85.4882845,33.4179963,"{-85.512138,33.397837,-85.465977,33.440506}"
2020,0151520,place,"Mosses, AL",-86.6794351,32.1887583,"{-86.732706,32.148945,-86.658655,32.202442}"
2020,0151600,place,"Moulton, AL",-87.2827067,34.4883021,"{-87.316823,34.455236,-87.248893,34.515445}"
2020,0151648,place,"Moundville, AL",-87.6275447,32.9965417,"{-87.655183,32.975867,-87.598498,33.020331}"
2020,0151696,place,"Mountain Brook, AL",-86.7344699,33.4914885,"{-86.78616,33.440841,-86.689327,33.522775}"
2020,0152320,place,"Mount Olive, AL",-86.1330402,33.0784543,"{-86.167601,33.043348,-86.100131,33.104692}"
2020,0152344,place,"Mount Olive, AL",-86.8754901,33.6692856,"{-86.906258,33.649471,-86.841614,33.719662}"
2020,0152608,place,"Mount Vernon, AL",-88.0131658,31.087727,"{-88.039757,31.056223,-87.97789,31.157}"
2020,0152680,place,"Movico, AL",-88.0266191,31.0627634,"{-88.033685,31.051927,-88.019092,31.070666}"
2020,0152776,place,"Mulga, AL",-86.9713086,33.5549035,"{-86.983791,33.538845,-86.965401,33.564878}"
2020,0152848,place,"Munford, AL",-85.956225,33.5262077,"{-85.977028,33.504741,-85.932481,33.550395}"
2020,0153016,place,"Muscle Shoals, AL",-87.6337614,34.7431698,"{-87.680453,34.691656,-87.563871,34.795708}"
2020,0153112,place,"Myrtlewood, AL",-87.9492614,32.2520877,"{-87.964419,32.24071,-87.929618,32.264899}"
2020,0153208,place,"Nanafalia, AL",-87.9957573,32.1113928,"{-88.00591,32.091862,-87.981316,32.127342}"
2020,0153232,place,"Nances Creek, AL",-85.6691043,33.8555005,"{-85.709153,33.839139,-85.638776,33.884418}"
2020,0153256,place,"Napier Field, AL",-85.4549616,31.3149166,"{-85.463568,31.310379,-85.449016,31.318983}"
2020,0153376,place,"Natural Bridge, AL",-87.6014087,34.0903535,"{-87.606383,34.084637,-87.596273,34.096168}"
2020,0153400,place,"Nauvoo, AL",-87.4854396,33.9843865,"{-87.498404,33.974943,-87.478739,33.998361}"
2020,0153448,place,"Nectar, AL",-86.6206144,33.9797787,"{-86.661456,33.955511,-86.61732,33.984381}"
2020,0153472,place,"Needham, AL",-88.336563,31.9870003,"{-88.350105,31.981927,-88.324402,31.99282}"
2020,0153784,place,"Newbern, AL",-87.5356139,32.5916721,"{-87.541251,32.582801,-87.525154,32.601061}"
2020,0153856,place,"New Brockton, AL",-85.9190283,31.3767095,"{-85.944073,31.356613,-85.892515,31.405122}"
2020,0154168,place,"New Hope, AL",-86.4123718,34.5379724,"{-86.450744,34.509954,-86.379983,34.562196}"
2020,0154312,place,"New Market, AL",-86.4258175,34.8923348,"{-86.455344,34.836607,-86.385025,34.954317}"
2020,0154432,place,"New Site, AL",-85.7845357,33.0260412,"{-85.818361,33.008896,-85.749171,33.054161}"
2020,0154480,place,"Newton, AL",-85.5883068,31.3412288,"{-85.620842,31.302642,-85.549164,31.392958}"
2020,0154582,place,"New Union, AL",-86.2280023,34.133682,"{-86.300702,34.098974,-86.157143,34.180833}"
2020,0154600,place,"Newville, AL",-85.33669,31.4206043,"{-85.368705,31.405986,-85.319654,31.435295}"
2020,0154696,place,"Nixburg, AL",-86.1008384,32.8554881,"{-86.124548,32.842104,-86.065717,32.886089}"
2020,0155044,place,"North Courtland, AL",-87.3057168,34.6800232,"{-87.314249,34.670884,-87.297417,34.687929}"
2020,0155152,place,"North Johns, AL",-87.1007246,33.3677685,"{-87.10561,33.364168,-87.095092,33.371492}"
2020,0155200,place,"Northport, AL",-87.5963958,33.2575649,"{-87.677874,33.206846,-87.542623,33.338234}"
2020,0155440,place,"Notasulga, AL",-85.6685772,32.5554094,"{-85.7041,32.531291,-85.635097,32.589405}"
2020,0155752,place,"Oak Grove, AL",-86.3037273,33.1903592,"{-86.326386,33.177329,-86.28169,33.222088}"
2020,0155848,place,"Oak Hill, AL",-87.0852344,31.9216196,"{-87.09191,31.916381,-87.078578,31.926864}"
2020,0155992,place,"Oakman, AL",-87.3886989,33.7143223,"{-87.406234,33.699826,-87.371763,33.728568}"
2020,0156400,place,"Odenville, AL",-86.4233712,33.7008754,"{-86.48172,33.628505,-86.363275,33.770533}"
2020,0156472,place,"Ohatchee, AL",-86.029062,33.7897587,"{-86.062267,33.744619,-85.985409,33.841607}"
2020,0157000,place,"Oneonta, AL",-86.4897933,33.9470381,"{-86.582809,33.878003,-86.441891,33.987317}"
2020,0157024,place,"Onycha, AL",-86.2760237,31.2256927,"{-86.28684,31.210007,-86.26975,31.235722}"
2020,0157048,place,"Opelika, AL",-85.3763247,32.6613899,"{-85.472691,32.581917,-85.267907,32.739164}"
2020,0157120,place,"Opp, AL",-86.2574417,31.2843753,"{-86.313948,31.244724,-86.210672,31.353251}"
2020,0157144,place,"Orange Beach, AL",-87.5953711,30.2939866,"{-87.653987,30.254541,-87.514091,30.34004}"
2020,0157240,place,"Orrville, AL",-87.2454472,32.3067685,"{-87.254366,32.299236,-87.23652,32.314107}"
2020,0157384,place,"Our Town, AL",-85.9670347,32.8422113,"{-86.013897,32.797283,-85.920417,32.857041}"
2020,0157504,place,"Owens Cross Roads, AL",-86.4550271,34.5854576,"{-86.507512,34.549468,-86.414368,34.622617}"
2020,0157576,place,"Oxford, AL",-85.8681325,33.5973661,"{-86.021741,33.549275,-85.716649,33.636435}"
2020,0157648,place,"Ozark, AL",-85.6450347,31.4516146,"{-85.700783,31.377062,-85.581235,31.514237}"
2020,0157696,place,"Paint Rock, AL",-86.3339515,34.6609335,"{-86.337387,34.65583,-86.324014,34.664604}"
2020,0157912,place,"Panola, AL",-88.2622656,32.9468194,"{-88.278465,32.938981,-88.256723,32.955278}"
2020,0158272,place,"Parrish, AL",-87.2801272,33.7323211,"{-87.294425,33.718141,-87.261259,33.74361}"
2020,0158680,place,"Pea Ridge, AL",-86.937949,33.1338054,"{-86.980419,33.105626,-86.894541,33.179214}"
2020,0158848,place,"Pelham, AL",-86.7421974,33.3218302,"{-86.830743,33.242889,-86.665763,33.389954}"
2020,0158896,place,"Pell City, AL",-86.2636337,33.5603118,"{-86.326941,33.493034,-86.19366,33.626105}"
2020,0158968,place,"Pennington, AL",-88.0375722,32.2006117,"{-88.060838,32.181955,-88.009114,32.219678}"
2020,0159016,place,"Penton, AL",-85.474824,33.0098324,"{-85.526052,32.990105,-85.43194,33.035283}"
2020,0159064,place,"Perdido, AL",-87.6301119,31.0056921,"{-87.66742,30.974161,-87.592237,31.041002}"
2020,0159088,place,"Perdido Beach, AL",-87.5048001,30.3538787,"{-87.51224,30.341161,-87.493741,30.37035}"
2020,0159232,place,"Peterman, AL",-87.2630424,31.5836687,"{-87.270036,31.57598,-87.257149,31.591734}"
2020,0159328,place,"Petrey, AL",-86.2040072,31.8521599,"{-86.21253,31.842627,-86.198804,31.856297}"
2020,0159472,place,"Phenix City, AL",-85.0250208,32.4616695,"{-85.093832,32.36022,-84.96303,32.5419}"
2020,0159496,place,"Phil Campbell, AL",-87.7073592,34.3515467,"{-87.734434,34.33715,-87.688117,34.371647}"
2020,0159592,place,"Pickensville, AL",-88.2894432,33.2357825,"{-88.311584,33.198076,-88.235315,33.257824}"
2020,0159640,place,"Piedmont, AL",-85.6152672,33.9275571,"{-85.714549,33.881843,-85.569131,33.963067}"
2020,0159760,place,"Pike Road, AL",-86.1189274,32.2736095,"{-86.217396,32.207065,-85.95851,32.390944}"
2020,0159832,place,"Pinckard, AL",-85.537836,31.3189885,"{-85.569606,31.297103,-85.518443,31.348537}"
2020,0159880,place,"Pine Apple, AL",-86.9890587,31.8721548,"{-87.009216,31.854938,-86.975241,31.890671}"
2020,0160240,place,"Pine Hill, AL",-87.5875157,31.9858837,"{-87.63135,31.968371,-87.554577,32.002701}"
2020,0160264,place,"Pine Level, AL",-86.4543181,32.5795393,"{-86.504996,32.528205,-86.412222,32.624909}"
2020,0160372,place,"Pine Ridge, AL",-85.7838312,34.4479151,"{-85.793638,34.434329,-85.765247,34.463595}"
2020,0160648,place,"Pinson, AL",-86.6697408,33.7032913,"{-86.7212,33.663942,-86.612925,33.754957}"
2020,0160720,place,"Pisgah, AL",-85.8460102,34.6843663,"{-85.865501,34.667608,-85.821133,34.707397}"
2020,0161008,place,"Pleasant Grove, AL",-86.9781455,33.4939687,"{-87.01301,33.461783,-86.943771,33.538252}"
2020,0161038,place,"Pleasant Groves, AL",-86.1976368,34.7376193,"{-86.235187,34.708556,-86.163119,34.757108}"
2020,0161488,place,"Point Clear, AL",-87.9111321,30.4861122,"{-87.937279,30.460774,-87.885187,30.512765}"
2020,0161536,place,"Pollard, AL",-87.1729785,31.0238773,"{-87.183298,31.012563,-87.160639,31.036178}"
2020,0162075,place,"Powell, AL",-85.8975528,34.5325882,"{-85.926893,34.509821,-85.869408,34.550485}"
2020,0162328,place,"Prattville, AL",-86.4494009,32.4490416,"{-86.555417,32.40635,-86.364369,32.511553}"
2020,0162472,place,"Priceville, AL",-86.8821766,34.529583,"{-86.920176,34.491515,-86.842656,34.558329}"
2020,0162496,place,"Prichard, AL",-88.1314164,30.7733374,"{-88.183273,30.719061,-88.061624,30.822479}"
2020,0162688,place,"Providence, AL",-87.776115,32.3423864,"{-87.78984,32.328803,-87.759143,32.362153}"
2020,0162952,place,"Putnam, AL",-88.0330575,32.018084,"{-88.057201,31.989925,-88.000669,32.047862}"
2020,0163216,place,"Ragland, AL",-86.1359268,33.7483254,"{-86.184752,33.707199,-86.077906,33.780079}"
2020,0163288,place,"Rainbow City, AL",-86.0842282,33.9287768,"{-86.167642,33.864918,-86.00424,33.99262}"
2020,0163336,place,"Rainsville, AL",-85.8365048,34.4943644,"{-85.895894,34.441479,-85.780897,34.54697}"
2020,0163408,place,"Ranburne, AL",-85.3390128,33.5258526,"{-85.354087,33.512458,-85.314908,33.53792}"
2020,0163495,place,"Ray, AL",-86.0452518,32.8681408,"{-86.080376,32.850702,-86.007658,32.905887}"
2020,0163576,place,"Red Bay, AL",-88.1365151,34.4360968,"{-88.16155,34.4038,-88.102539,34.490728}"
2020,0163730,place,"Redland, AL",-86.1437588,32.4814263,"{-86.202773,32.424636,-86.074001,32.518954}"
2020,0163768,place,"Red Level, AL",-86.606217,31.4067109,"{-86.623705,31.392157,-86.581989,31.419127}"
2020,0163912,place,"Redstone Arsenal, AL",-86.6611715,34.6877633,"{-86.699766,34.617779,-86.601794,34.709686}"
2020,0163984,place,"Reece City, AL",-86.0344981,34.0772413,"{-86.067517,34.040738,-85.997114,34.111266}"
2020,0164040,place,"Reeltown, AL",-85.8195624,32.5742107,"{-85.849001,32.551523,-85.788475,32.609291}"
2020,0164104,place,"Reform, AL",-88.0172973,33.3782138,"{-88.047942,33.347806,-87.98255,33.410013}"
2020,0164152,place,"Rehobeth, AL",-85.4396074,31.1245066,"{-85.478466,31.08429,-85.41258,31.169113}"
2020,0164248,place,"Remlap, AL",-86.5939407,33.8069723,"{-86.640418,33.765171,-86.563007,33.860032}"
2020,0164368,place,"Repton, AL",-87.238931,31.4097164,"{-87.249303,31.401785,-87.229467,31.417297}"
2020,0164656,place,"Ridgeville, AL",-86.1028736,34.0569291,"{-86.113017,34.050597,-86.092774,34.066308}"
2020,0164776,place,"River Falls, AL",-86.5446094,31.3523975,"{-86.573518,31.335814,-86.513689,31.373083}"
2020,0164920,place,"Riverside, AL",-86.2043575,33.6163941,"{-86.242131,33.586924,-86.164613,33.657638}"
2020,0165016,place,"Riverview, AL",-87.0775305,31.06126,"{-87.085637,31.049336,-87.053067,31.066996}"
2020,0165040,place,"Roanoke, AL",-85.3695264,33.1453048,"{-85.411829,33.108598,-85.330321,33.185879}"
2020,0165208,place,"Robertsdale, AL",-87.7047227,30.557139,"{-87.733811,30.523653,-87.657575,30.585432}"
2020,0165412,place,"Rock Creek, AL",-87.0812493,33.477227,"{-87.098196,33.459111,-87.064347,33.494863}"
2020,0165472,place,"Rockford, AL",-86.2083455,32.8968657,"{-86.228539,32.870185,-86.19788,32.91061}"
2020,0165592,place,"Rock Mills, AL",-85.2810698,33.1599402,"{-85.314907,33.129149,-85.259837,33.181784}"
2020,0165784,place,"Rockville, AL",-87.8442122,31.405776,"{-87.861563,31.382736,-87.827779,31.423722}"
2020,0166216,place,"Rogersville, AL",-87.2840916,34.8277142,"{-87.307449,34.81072,-87.249429,34.840175}"
2020,0166408,place,"Rosa, AL",-86.500325,33.9927555,"{-86.53903,33.970715,-86.476335,34.010842}"
2020,0167056,place,"Russellville, AL",-87.7281226,34.5057191,"{-87.759465,34.460007,-87.68471,34.549192}"
2020,0167176,place,"Rutledge, AL",-86.3020085,31.7240719,"{-86.326924,31.673958,-86.279448,31.746879}"
2020,0167536,place,"St. Florian, AL",-87.6237364,34.8740981,"{-87.660466,34.836014,-87.580414,34.901953}"
2020,0167584,place,"St. Stephens, AL",-88.0528335,31.5711113,"{-88.096922,31.50656,-88.020322,31.58078}"
2020,0167608,place,"Saks, AL",-85.8536983,33.7114011,"{-85.882601,33.672914,-85.820632,33.751038}"
2020,0167800,place,"Samson, AL",-86.046735,31.1124171,"{-86.06595,31.098169,-86.020954,31.128084}"
2020,0167920,place,"Sand Rock, AL",-85.7704157,34.2312276,"{-85.799997,34.204475,-85.747304,34.26666}"
2020,0168016,place,"Sanford, AL",-86.3988477,31.2988195,"{-86.418229,31.285758,-86.379331,31.319013}"
2020,0168160,place,"Saraland, AL",-88.0972017,30.85401,"{-88.174699,30.780022,-88.030431,30.924714}"
2020,0168280,place,"Sardis City, AL",-86.119104,34.1724125,"{-86.147875,34.152473,-86.065382,34.200756}"
2020,0168352,place,"Satsuma, AL",-88.0633829,30.8578741,"{-88.089883,30.832414,-88.027173,30.890975}"
2020,0168736,place,"Scottsboro, AL",-86.0481547,34.6446199,"{-86.135696,34.564771,-85.955391,34.719222}"
2020,0169000,place,"Section, AL",-85.9849417,34.5816442,"{-86.002144,34.564083,-85.967042,34.618716}"
2020,0169120,place,"Selma, AL",-87.0357021,32.4169832,"{-87.091088,32.384163,-86.97104,32.451509}"
2020,0169180,place,"Selmont-West Selmont, AL",-87.0068982,32.3782489,"{-87.022441,32.357202,-86.986589,32.404986}"
2020,0169240,place,"Semmes, AL",-88.2201359,30.8223579,"{-88.285045,30.734167,-88.202413,30.851656}"
2020,0169648,place,"Sheffield, AL",-87.6981825,34.757028,"{-87.741104,34.731435,-87.649146,34.781728}"
2020,0169672,place,"Shelby, AL",-86.5854028,33.106882,"{-86.63638,33.057147,-86.533165,33.150545}"
2020,0169840,place,"Shiloh, AL",-85.8776165,34.4626655,"{-85.895258,34.444549,-85.859975,34.480782}"
2020,0169978,place,"Shoal Creek, AL",-86.6109248,33.4307625,"{-86.63541,33.391378,-86.575157,33.463364}"
2020,0170128,place,"Shorter, AL",-85.9727564,32.4115091,"{-86.009361,32.342011,-85.855154,32.435071}"
2020,0170416,place,"Silas, AL",-88.325923,31.7678022,"{-88.369944,31.731426,-88.295709,31.785877}"
2020,0170536,place,"Silverhill, AL",-87.7505567,30.5453595,"{-87.810022,30.535138,-87.729583,30.552916}"
2020,0170632,place,"Sims Chapel, AL",-88.1429707,31.2492546,"{-88.163458,31.208718,-88.120421,31.277206}"
2020,0170704,place,"Sipsey, AL",-87.0829179,33.8221186,"{-87.094399,33.816983,-87.070269,33.830354}"
2020,0170896,place,"Skyline, AL",-86.1224297,34.7985241,"{-86.163637,34.750842,-86.103298,34.844939}"
2020,0171040,place,"Slocomb, AL",-85.5986597,31.1121258,"{-85.621448,31.087611,-85.569486,31.132913}"
2020,0171190,place,"Smiths Station, AL",-85.0810754,32.5071588,"{-85.138357,32.492255,-85.0605,32.55922}"
2020,0171201,place,"Smoke Rise, AL",-86.8246833,33.8799418,"{-86.8494,33.845161,-86.80359,33.910518}"
2020,0171280,place,"Snead, AL",-86.3901219,34.1157555,"{-86.417621,34.094857,-86.362245,34.136817}"
2020,0171496,place,"Somerville, AL",-86.7912026,34.4670528,"{-86.835111,34.442342,-86.752073,34.496849}"
2020,0171832,place,"Southside, AL",-86.0180201,33.8908407,"{-86.070427,33.844781,-85.973435,33.946653}"
2020,0171900,place,"South Vinemont, AL",-86.8639651,34.2355674,"{-86.891526,34.219571,-86.855751,34.280307}"
2020,0171976,place,"Spanish Fort, AL",-87.8659165,30.7229675,"{-88.005841,30.656951,-87.768687,30.835257}"
2020,0172408,place,"Spring Garden, AL",-85.5557564,33.9729652,"{-85.572985,33.958034,-85.53257,33.987959}"
2020,0172600,place,"Springville, AL",-86.4840861,33.7405205,"{-86.516525,33.721658,-86.38996,33.815833}"
2020,0172672,place,"Spruce Pine, AL",-87.7295968,34.3928704,"{-87.741941,34.383676,-87.715681,34.399992}"
2020,0172720,place,"Standing Rock, AL",-85.2398494,33.0856897,"{-85.267967,33.063856,-85.223522,33.102471}"
2020,0172816,place,"Stapleton, AL",-87.7977268,30.7355582,"{-87.822449,30.703312,-87.753495,30.776641}"
2020,0172888,place,"Steele, AL",-86.1921066,33.941378,"{-86.245682,33.914259,-86.156222,33.968905}"
2020,0173056,place,"Sterrett, AL",-86.4610448,33.4421979,"{-86.530947,33.389927,-86.405563,33.502336}"
2020,0173080,place,"Stevenson, AL",-85.81435,34.8767966,"{-85.901724,34.766845,-85.785864,34.916462}"
2020,0173152,place,"Stewartville, AL",-86.2606928,33.0755319,"{-86.319177,33.021516,-86.186612,33.104315}"
2020,0173272,place,"Stockton, AL",-87.8739291,31.0012455,"{-87.893027,30.959985,-87.828334,31.021163}"
2020,0173728,place,"Sulligent, AL",-88.1266332,33.8911892,"{-88.161566,33.859025,-88.095771,33.919929}"
2020,0173848,place,"Sumiton, AL",-87.0469034,33.7492694,"{-87.07137,33.717542,-87.023283,33.78076}"
2020,0173872,place,"Summerdale, AL",-87.6875613,30.4767413,"{-87.726948,30.441953,-87.632245,30.523669}"
2020,0174160,place,"Susan Moore, AL",-86.4341562,34.0919991,"{-86.443772,34.042423,-86.388724,34.10777}"
2020,0174304,place,"Sweet Water, AL",-87.8618892,32.1046143,"{-87.878942,32.088819,-87.842021,32.12502}"
2020,0174352,place,"Sylacauga, AL",-86.2747992,33.1886699,"{-86.357688,33.106229,-86.189361,33.276303}"
2020,0174400,place,"Sylvania, AL",-85.8047223,34.5620385,"{-85.856614,34.528863,-85.754694,34.591009}"
2020,0174424,place,"Sylvan Springs, AL",-87.0311969,33.5302301,"{-87.061434,33.495132,-87.004107,33.568527}"
2020,0174592,place,"Talladega, AL",-86.0994543,33.4317569,"{-86.158149,33.392437,-86.033004,33.486545}"
2020,0174616,place,"Talladega Springs, AL",-86.4377611,33.1204519,"{-86.450597,33.109924,-86.433268,33.128309}"
2020,0174688,place,"Tallassee, AL",-85.8900797,32.5300197,"{-85.940609,32.449784,-85.841026,32.576449}"
2020,0174976,place,"Tarrant, AL",-86.7662525,33.5928973,"{-86.790906,33.565685,-86.745685,33.625647}"
2020,0175096,place,"Taylor, AL",-85.4757898,31.1688107,"{-85.495159,31.134103,-85.449569,31.195908}"
2020,0175768,place,"Theodore, AL",-88.1875733,30.5386857,"{-88.225845,30.515297,-88.157502,30.576898}"
2020,0175936,place,"Thomaston, AL",-87.6237059,32.2682775,"{-87.637745,32.255977,-87.608275,32.28141}"
2020,0175960,place,"Thomasville, AL",-87.743024,31.9104547,"{-87.767874,31.862386,-87.717251,31.94737}"
2020,0176080,place,"Thorsby, AL",-86.7203347,32.9169092,"{-86.754202,32.897014,-86.691696,32.934278}"
2020,0176200,place,"Tibbie, AL",-88.243862,31.3704902,"{-88.258134,31.34736,-88.233654,31.379675}"
2020,0176208,place,"Tidmore Bend, AL",-85.9263866,34.0331841,"{-85.957562,33.988556,-85.881639,34.072112}"
2020,0176320,place,"Tillmans Corner, AL",-88.2127795,30.5815333,"{-88.242358,30.544188,-88.169691,30.616706}"
2020,0176584,place,"Town Creek, AL",-87.4077629,34.6713014,"{-87.422815,34.640655,-87.388927,34.692011}"
2020,0176632,place,"Toxey, AL",-88.309146,31.9107117,"{-88.316498,31.902837,-88.295138,31.917726}"
2020,0176680,place,"Trafford, AL",-86.7465023,33.8187126,"{-86.772429,33.796104,-86.721911,33.840811}"
2020,0176824,place,"Triana, AL",-86.7484877,34.5877795,"{-86.769713,34.563465,-86.729862,34.611638}"
2020,0176872,place,"Trinity, AL",-87.0813543,34.5974448,"{-87.106451,34.573334,-87.051037,34.635693}"
2020,0176920,place,"Troy, AL",-85.9671296,31.8019595,"{-86.028827,31.73851,-85.896267,31.875971}"
2020,0176944,place,"Trussville, AL",-86.5632391,33.6552328,"{-86.652191,33.568918,-86.50737,33.721398}"
2020,0177256,place,"Tuscaloosa, AL",-87.5283003,33.2344041,"{-87.663995,33.111445,-87.246228,33.45788}"
2020,0177280,place,"Tuscumbia, AL",-87.7025864,34.7185022,"{-87.752231,34.679593,-87.660286,34.745539}"
2020,0177304,place,"Tuskegee, AL",-85.6825088,32.4187228,"{-85.789002,32.38626,-85.644022,32.51598}"
2020,0177352,place,"Twin, AL",-87.8522949,33.9923143,"{-87.867345,33.962179,-87.827211,34.04254}"
2020,0177580,place,"Underwood-Petersville, AL",-87.6981572,34.8761124,"{-87.723485,34.855084,-87.670619,34.90002}"
2020,0177616,place,"Union, AL",-87.9071786,32.9938104,"{-87.915671,32.979207,-87.898238,33.008727}"
2020,0177784,place,"Union Grove, AL",-86.4516673,34.4061718,"{-86.45835,34.395864,-86.440031,34.408406}"
2020,0177880,place,"Union Springs, AL",-85.7146227,32.1395058,"{-85.743902,32.115538,-85.687311,32.160756}"
2020,0177904,place,"Uniontown, AL",-87.487271,32.4466205,"{-87.524488,32.415909,-87.467036,32.482028}"
2020,0178120,place,"Uriah, AL",-87.4992133,31.3073653,"{-87.513503,31.296481,-87.484838,31.318512}"
2020,0178204,place,"Valley, AL",-85.2044375,32.801427,"{-85.274541,32.746375,-85.134334,32.856479}"
2020,0178232,place,"Valley Grande, AL",-87.0327731,32.4868717,"{-87.118038,32.443807,-86.947641,32.545999}"
2020,0178240,place,"Valley Head, AL",-85.6230436,34.5562044,"{-85.65076,34.521542,-85.600676,34.580791}"
2020,0178264,place,"Vance, AL",-87.2266271,33.1739923,"{-87.297589,33.113317,-87.178425,33.222287}"
2020,0178312,place,"Vandiver, AL",-86.5292216,33.458856,"{-86.575157,33.403032,-86.443636,33.502543}"
2020,0178480,place,"Vernon, AL",-88.1142907,33.7588163,"{-88.13725,33.735262,-88.080489,33.789951}"
2020,0178552,place,"Vestavia Hills, AL",-86.7395079,33.4624959,"{-86.831275,33.404227,-86.648059,33.519583}"
2020,0178984,place,"Vina, AL",-88.0605721,34.3761752,"{-88.091636,34.359613,-88.03588,34.390457}"
2020,0179008,place,"Vincent, AL",-86.4025439,33.3831453,"{-86.456404,33.338737,-86.341998,33.422296}"
2020,0179032,place,"Vinegar Bend, AL",-88.3672636,31.2590932,"{-88.415451,31.223058,-88.333207,31.287278}"
2020,0179272,place,"Vredenburgh, AL",-87.3180765,31.823234,"{-87.330559,31.816347,-87.304974,31.831165}"
2020,0179344,place,"Wadley, AL",-85.5685919,33.1234004,"{-85.587013,33.112539,-85.550754,33.134462}"
2020,0179488,place,"Waldo, AL",-86.0410748,33.3870835,"{-86.054176,33.367905,-86.019496,33.404795}"
2020,0179728,place,"Walnut Grove, AL",-86.28717,34.0645952,"{-86.324594,34.037098,-86.23643,34.083359}"
2020,0179944,place,"Warrior, AL",-86.8156496,33.8148581,"{-86.862015,33.782893,-86.769629,33.841489}"
2020,0180064,place,"Waterloo, AL",-88.0643726,34.9171991,"{-88.072689,34.905171,-88.059203,34.927412}"
2020,0180256,place,"Waverly, AL",-85.5709988,32.7300785,"{-85.597478,32.721928,-85.559357,32.744003}"
2020,0180352,place,"Weaver, AL",-85.8093627,33.7590698,"{-85.834879,33.741918,-85.77599,33.782843}"
2020,0180376,place,"Webb, AL",-85.2896216,31.2572375,"{-85.324539,31.22383,-85.25515,31.289607}"
2020,0180496,place,"Wedowee, AL",-85.4865001,33.3080042,"{-85.511145,33.282097,-85.464176,33.329182}"
2020,0180736,place,"Weogufka, AL",-86.3091462,33.0217238,"{-86.336708,32.994262,-86.286404,33.052318}"
2020,0180928,place,"West Blocton, AL",-87.1252247,33.1181762,"{-87.151605,33.104478,-87.095061,33.137893}"
2020,0181084,place,"West End-Cobb Town, AL",-85.8765531,33.6514813,"{-85.893528,33.629471,-85.852938,33.678238}"
2020,0181336,place,"West Jefferson, AL",-87.0470354,33.6665149,"{-87.084706,33.627044,-87.035229,33.679495}"
2020,0181504,place,"Westover, AL",-86.5339862,33.3673403,"{-86.587128,33.309952,-86.478209,33.422344}"
2020,0181528,place,"West Point, AL",-86.9639254,34.2387606,"{-86.996157,34.226387,-86.917383,34.264754}"
2020,0181720,place,"Wetumpka, AL",-86.2069992,32.5403765,"{-86.258916,32.454971,-86.152776,32.595}"
2020,0181744,place,"Whatley, AL",-87.7108364,31.6463431,"{-87.721875,31.634461,-87.698103,31.658734}"
2020,0181912,place,"White Hall, AL",-86.7157762,32.297411,"{-86.75078,32.253025,-86.677952,32.356986}"
2020,0182104,place,"White Plains, AL",-85.6884699,33.7593117,"{-85.725321,33.721397,-85.658967,33.801458}"
2020,0182176,place,"Whitesboro, AL",-86.0584995,34.1690042,"{-86.104423,34.114279,-86.002757,34.200457}"
2020,0182848,place,"Wilsonville, AL",-86.491105,33.2407516,"{-86.535759,33.190855,-86.457159,33.284215}"
2020,0182872,place,"Wilton, AL",-86.8796555,33.0815649,"{-86.890208,33.07394,-86.868602,33.089911}"
2020,0182992,place,"Winfield, AL",-87.7913103,33.9347171,"{-87.854539,33.873854,-87.741416,34.003376}"
2020,0183400,place,"Woodland, AL",-85.3974394,33.3756267,"{-85.412689,33.361997,-85.382441,33.3874}"
2020,0183640,place,"Woodstock, AL",-87.1484329,33.2174981,"{-87.191057,33.174297,-87.092759,33.287313}"
2020,0183664,place,"Woodville, AL",-86.2834611,34.6295758,"{-86.302119,34.603038,-86.261197,34.652564}"
2020,0183976,place,"Yellow Bluff, AL",-87.4773585,31.9623412,"{-87.486261,31.956424,-87.464879,31.968027}"
2020,0184096,place,"York, AL",-88.2913937,32.5005859,"{-88.319165,32.478158,-88.264036,32.532314}"
2020,0200065,place,"Adak, AK",-176.5980669,51.9098894,"{-176.696692,51.810493,-176.447847,51.959619}"
2020,0200650,place,"Akhiok, AK",-154.215306,56.9483286,"{-154.266866,56.925874,-154.154897,56.96204}"
2020,0200760,place,"Akiachak, AK",-161.4020874,60.9209843,"{-161.45954,60.893898,-161.349591,60.946669}"
2020,0200870,place,"Akiak, AK",-161.2160018,60.9094449,"{-161.23455,60.891694,-161.189928,60.920583}"
2020,0201090,place,"Akutan, AK",-165.7630263,54.1399791,"{-165.943051,54.094545,-165.526895,54.253591}"
2020,0201200,place,"Alakanuk, AK",-164.649719,62.7109971,"{-164.749965,62.638988,-164.500324,62.740074}"
2020,0201305,place,"Alatna, AK",-152.8384978,66.5637941,"{-153.001485,66.497086,-152.673772,66.60746}"
2020,0201390,place,"Alcan Border, AK",-141.1935839,62.7030781,"{-141.322738,62.521429,-141.001447,62.811594}"
2020,0201420,place,"Aleknagik, AK",-158.6643428,59.2889609,"{-158.819361,59.23057,-158.538846,59.367815}"
2020,0201560,place,"Aleneva, AK",-152.909015,58.0590519,"{-153.075806,57.988937,-152.753598,58.134329}"
2020,0201860,place,"Allakaket, AK",-152.583016,66.5420021,"{-152.727432,66.523175,-152.548783,66.580913}"
2020,0201970,place,"Ambler, AK",-157.8870972,67.0909442,"{-157.937936,67.053657,-157.773693,67.111401}"
2020,0202080,place,"Anaktuvuk Pass, AK",-151.6970664,68.1497516,"{-151.778747,68.126743,-151.653574,68.173246}"
2020,0203000,place,"Anchorage, AK",-149.2843294,61.1742503,"{-150.435826,60.732977,-148.462396,61.484033}"
2020,0203110,place,"Anchor Point, AK",-151.6956971,59.7473639,"{-151.868332,59.669986,-151.459478,59.866567}"
2020,0203220,place,"Anderson, AK",-149.1631867,64.3082809,"{-149.296933,64.257153,-149.002088,64.358214}"
2020,0203440,place,"Angoon, AK",-134.4783574,57.4412574,"{-134.63126,57.375772,-134.364061,57.530997}"
2020,0203550,place,"Aniak, AK",-159.5474266,61.5788252,"{-159.608164,61.563138,-159.487342,61.599418}"
2020,0203880,place,"Anvik, AK",-160.2151055,62.6316273,"{-160.24545,62.610179,-160.172559,62.696816}"
2020,0203990,place,"Arctic Village, AK",-145.4013616,68.1653743,"{-145.754871,68.05143,-145.275934,68.213995}"
2020,0204210,place,"Atka, AK",-174.2134523,52.2115456,"{-174.32437,52.174527,-174.07139,52.299927}"
2020,0204430,place,"Atmautluak, AK",-162.2803021,60.8627546,"{-162.314024,60.842678,-162.249478,60.881133}"
2020,0204500,place,"Atqasuk, AK",-157.3254592,70.4807859,"{-157.534342,70.429723,-157.254341,70.545128}"
2020,0204670,place,"Attu Station, AK",173.256076,52.8802478,"{172.938801,52.784357,173.429921,52.995468}"
2020,0205000,place,"Badger, AK",-147.3851292,64.8000813,"{-147.577362,64.716574,-147.188718,64.879072}"
2020,0205585,place,"Bear Creek, AK",-149.3697788,60.2080603,"{-149.476543,60.126272,-149.153161,60.294121}"
2020,0205750,place,"Beaver, AK",-147.2877557,66.3847451,"{-147.462382,66.340234,-147.213475,66.440934}"
2020,0206245,place,"Beluga, AK",-151.1842373,61.1908616,"{-151.364389,61.095428,-150.974011,61.252943}"
2020,0206520,place,"Bethel, AK",-161.7963225,60.793905,"{-161.916666,60.749999,-161.666666,60.835563}"
2020,0206630,place,"Bettles, AK",-151.5379942,66.9069009,"{-151.569342,66.889955,-151.503125,66.924868}"
2020,0206850,place,"Big Delta, AK",-145.7408743,64.1570474,"{-145.90302,64.083556,-145.546345,64.231699}"
2020,0207070,place,"Big Lake, AK",-149.97553,61.5155468,"{-150.17545,61.439589,-149.717369,61.602285}"
2020,0207620,place,"Birch Creek, AK",-145.8765829,66.2683268,"{-145.928993,66.24172,-145.779712,66.302691}"
2020,0208740,place,"Brevig Mission, AK",-166.508946,65.3431961,"{-166.533136,65.326663,-166.463904,65.350513}"
2020,0209600,place,"Buckland, AK",-161.1394363,65.9764888,"{-161.151786,65.971214,-161.11638,65.98567}"
2020,0209657,place,"Buffalo Soapstone, AK",-149.1211718,61.6844392,"{-149.18339,61.656937,-149.025909,61.764056}"
2020,0209710,place,"Butte, AK",-148.9881684,61.5340335,"{-149.170743,61.501982,-148.872809,61.609192}"
2020,0210150,place,"Cantwell, AK",-148.7496213,63.411396,"{-149.215212,63.333219,-148.495347,63.463399}"
2020,0211690,place,"Central, AK",-144.6205076,65.5090731,"{-145.047243,65.396719,-144.258566,65.680398}"
2020,0211800,place,"Chalkyitsik, AK",-143.7892981,66.6467531,"{-143.843444,66.623815,-143.708642,66.675714}"
2020,0212350,place,"Chase, AK",-149.9361716,62.4182357,"{-150.157869,62.333593,-149.652624,62.617808}"
2020,0212680,place,"Chefornak, AK",-164.2515417,60.1518451,"{-164.298344,60.1406,-164.211526,60.169495}"
2020,0212920,place,"Chena Ridge, AK",-148.0328835,64.7943046,"{-148.206673,64.734601,-147.865504,64.860174}"
2020,0212970,place,"Chenega, AK",-147.99458,60.0920961,"{-148.15825,59.984777,-147.889187,60.16056}"
2020,0213230,place,"Chevak, AK",-165.5941259,61.5295597,"{-165.611004,61.521181,-165.573171,61.53653}"
2020,0213340,place,"Chickaloon, AK",-148.2919573,61.8152831,"{-148.758297,61.724845,-148.126841,61.860544}"
2020,0213450,place,"Chicken, AK",-141.8282785,64.0876907,"{-142.039984,63.968295,-141.564731,64.202004}"
2020,0213550,place,"Chignik, AK",-158.3917842,56.2951796,"{-158.466488,56.277469,-158.338242,56.335283}"
2020,0213670,place,"Chignik Lagoon, AK",-158.5002595,56.3042672,"{-158.567274,56.271579,-158.431543,56.344997}"
2020,0213780,place,"Chignik Lake, AK",-158.7933764,56.2732208,"{-158.925281,56.21689,-158.701939,56.348829}"
2020,0213860,place,"Chiniak, AK",-152.2790326,57.5754975,"{-152.423588,57.524368,-152.154445,57.627452}"
2020,0213890,place,"Chisana, AK",-142.0505489,62.1100391,"{-142.213416,62.033446,-141.83181,62.185407}"
2020,0214000,place,"Chistochina, AK",-144.9410445,62.5964435,"{-145.264364,62.393935,-144.073001,62.766519}"
2020,0214110,place,"Chitina, AK",-144.1752678,61.5530384,"{-144.65645,61.452294,-144.049978,61.600388}"
2020,0214330,place,"Chuathbaluk, AK",-159.2470146,61.573909,"{-159.313416,61.555876,-159.169523,61.595768}"
2020,0214880,place,"Circle, AK",-144.1753301,65.8386169,"{-144.382835,65.690802,-144.024298,65.908982}"
2020,0215320,place,"Clam Gulch, AK",-151.4042034,60.2088872,"{-151.489305,60.166848,-151.310876,60.249949}"
2020,0215430,place,"Clark's Point, AK",-158.5273469,58.8329915,"{-158.573317,58.81883,-158.502788,58.847726}"
2020,0216360,place,"Coffman Cove, AK",-132.8419656,56.0016607,"{-132.904528,55.980705,-132.728617,56.041339}"
2020,0216420,place,"Cohoe, AK",-151.2981721,60.2669714,"{-151.401021,60.176556,-151.139262,60.389128}"
2020,0216530,place,"Cold Bay, AK",-162.7756858,55.215824,"{-162.927085,55.121005,-162.575048,55.280023}"
2020,0216630,place,"Coldfoot, AK",-150.1080508,67.2474514,"{-150.296199,67.167388,-149.879802,67.301732}"
2020,0216750,place,"College, AK",-147.8194533,64.8672895,"{-147.910859,64.806121,-147.737545,64.928346}"
2020,0217190,place,"Cooper Landing, AK",-149.8439454,60.4945792,"{-150.000043,60.403224,-149.675649,60.587298}"
2020,0217300,place,"Copper Center, AK",-145.3639555,62.001096,"{-145.444146,61.930957,-145.265625,62.032468}"
2020,0217410,place,"Cordova, AK",-145.6420649,60.530138,"{-145.864233,60.459668,-145.407191,60.640212}"
2020,0217670,place,"Covenant Life, AK",-136.123002,59.397505,"{-136.249953,59.371664,-135.906231,59.427111}"
2020,0217740,place,"Craig, AK",-133.111568,55.4887459,"{-133.159972,55.453174,-133.07084,55.518222}"
2020,0217850,place,"Crooked Creek, AK",-158.0810201,61.7966975,"{-158.317691,61.744981,-157.918191,61.947571}"
2020,0217960,place,"Crown Point, AK",-149.3529803,60.4266794,"{-149.379546,60.402821,-149.329078,60.451449}"
2020,0218510,place,"Deering, AK",-162.7645725,66.0694882,"{-162.786282,66.057792,-162.677843,66.101071}"
2020,0218620,place,"Delta Junction, AK",-145.6999975,64.0573466,"{-145.78086,64.025135,-145.650708,64.098439}"
2020,0218675,place,"Deltana, AK",-145.3516253,63.7893396,"{-145.685466,63.611744,-144.756837,64.093452}"
2020,0218805,place,"Denali Park, AK",-148.6737053,63.5730166,"{-148.937651,63.43463,-148.419804,63.807038}"
2020,0218925,place,"Diamond Ridge, AK",-151.554623,59.7023607,"{-151.706036,59.653472,-151.412867,59.752717}"
2020,0218950,place,"Dillingham, AK",-158.532251,59.0604666,"{-158.622624,58.99942,-158.41831,59.100551}"
2020,0219060,place,"Diomede, AK",-168.922577,65.7539244,"{-168.954462,65.739434,-168.896177,65.769818}"
2020,0219720,place,"Dot Lake, AK",-144.292361,63.5872228,"{-144.601697,63.456472,-143.7853,63.7211}"
2020,0219750,place,"Dot Lake Village, AK",-144.016171,63.6625931,"{-144.067281,63.641084,-143.957638,63.686522}"
2020,0220020,place,"Dry Creek, AK",-144.639194,63.6266379,"{-144.860882,63.515882,-144.353548,63.720931}"
2020,0220380,place,"Eagle, AK",-141.197829,64.7812559,"{-141.220508,64.773084,-141.158562,64.789897}"
2020,0220600,place,"Eagle Village, AK",-141.1138341,64.7433893,"{-141.175276,64.693073,-141.038119,64.782479}"
2020,0220716,place,"Eareckson Station, AK",174.1071489,52.7210599,"{174.053942,52.704587,174.156022,52.74141}"
2020,0220970,place,"Edna Bay, AK",-133.6922531,55.9676179,"{-133.728017,55.926622,-133.599312,55.998906}"
2020,0221040,place,"Eek, AK",-162.0419994,60.2162655,"{-162.054644,60.212833,-162.011557,60.220056}"
2020,0221150,place,"Egegik, AK",-157.5219777,58.2051475,"{-157.773726,58.154156,-157.262058,58.323988}"
2020,0221370,place,"Eielson AFB, AK",-147.0594637,64.6733002,"{-147.166298,64.603631,-146.938302,64.748285}"
2020,0221810,place,"Ekwok, AK",-157.4870231,59.3457816,"{-157.528631,59.302819,-157.443555,59.389501}"
2020,0222140,place,"Elfin Cove, AK",-136.2883092,58.0876806,"{-136.44849,58.002794,-135.91178,58.272674}"
2020,0222250,place,"Elim, AK",-162.2765599,64.6182258,"{-162.315686,64.59999,-162.230176,64.628864}"
2020,0222910,place,"Emmonak, AK",-164.5092895,62.7755898,"{-164.562284,62.761721,-164.469103,62.790601}"
2020,0223460,place,"Ester, AK",-148.0411534,64.879056,"{-148.308436,64.79126,-147.872413,64.92612}"
2020,0223720,place,"Eureka Roadhouse, AK",-147.1551042,61.9585075,"{-147.406414,61.818482,-146.960953,62.122783}"
2020,0223790,place,"Evansville, AK",-151.3700598,66.9329332,"{-151.570075,66.869416,-151.262114,66.966129}"
2020,0223900,place,"Excursion Inlet, AK",-135.3454623,58.4151445,"{-135.491944,58.352852,-135.265948,58.514227}"
2020,0224230,place,"Fairbanks, AK",-147.6517447,64.8365307,"{-147.821053,64.779636,-147.524124,64.877948}"
2020,0224660,place,"False Pass, AK",-163.3342679,54.8724411,"{-163.434758,54.74512,-163.184978,54.933071}"
2020,0224980,place,"Farmers Loop, AK",-147.6986078,64.9082276,"{-147.792631,64.863433,-147.59169,64.944327}"
2020,0225000,place,"Farm Loop, AK",-149.1552227,61.6351154,"{-149.23758,61.608949,-149.089533,61.657872}"
2020,0225220,place,"Ferry, AK",-148.9206018,64.0496203,"{-149.16913,63.956597,-148.721373,64.119401}"
2020,0225550,place,"Fishhook, AK",-149.2836422,61.7312481,"{-149.390824,61.64096,-149.149407,61.821007}"
2020,0225880,place,"Flat, AK",-158.040554,62.4413655,"{-158.256525,62.303744,-157.83753,62.571497}"
2020,0226100,place,"Fort Greely, AK",-145.7148859,63.9678365,"{-145.772843,63.938051,-145.656736,64.023255}"
2020,0226760,place,"Fort Yukon, AK",-145.2276421,66.5884064,"{-145.318163,66.558619,-145.178121,66.608887}"
2020,0226835,place,"Four Mile Road, AK",-149.1151921,64.6044762,"{-149.139887,64.587376,-149.100503,64.617308}"
2020,0226870,place,"Fox, AK",-147.6090067,64.9748585,"{-147.706566,64.932128,-147.521121,65.011309}"
2020,0226910,place,"Fox River, AK",-151.0121018,59.8899214,"{-151.223186,59.76752,-150.81727,59.957539}"
2020,0227090,place,"Fritz Creek, AK",-151.2886053,59.7468673,"{-151.453692,59.675523,-151.118933,59.816029}"
2020,0227145,place,"Funny River, AK",-150.7887355,60.4843126,"{-151.013763,60.445146,-150.590562,60.536684}"
2020,0227420,place,"Gakona, AK",-145.3051883,62.3680377,"{-145.407066,62.269578,-145.072231,62.41325}"
2020,0227530,place,"Galena, AK",-156.8733943,64.7414218,"{-157.004008,64.715464,-156.727816,64.769689}"
2020,0227640,place,"Gambell, AK",-171.7148354,63.7758716,"{-171.814004,63.718723,-171.617631,63.804603}"
2020,0227700,place,"Game Creek, AK",-135.5125475,58.0501048,"{-135.550094,58.031106,-135.467915,58.093135}"
2020,0228200,place,"Gateway, AK",-149.2226826,61.5668568,"{-149.359862,61.532612,-149.172572,61.612962}"
2020,0228590,place,"Glacier View, AK",-147.772591,61.848035,"{-148.157954,61.758356,-147.33428,61.971571}"
2020,0228740,place,"Glennallen, AK",-145.8440688,62.1538673,"{-146.031882,62.059338,-145.394313,62.214915}"
2020,0229130,place,"Goldstream, AK",-148.0273197,64.9421509,"{-148.372875,64.844129,-147.661323,64.995571}"
2020,0229180,place,"Golovin, AK",-162.9989429,64.5639018,"{-163.04578,64.540212,-162.970893,64.583333}"
2020,0229290,place,"Goodnews Bay, AK",-161.575325,59.1271649,"{-161.621844,59.114328,-161.542016,59.136753}"
2020,0230060,place,"Grayling, AK",-160.1129894,62.8960505,"{-160.152722,62.870079,-160.054934,62.927834}"
2020,0230500,place,"Gulkana, AK",-145.4449651,62.2154336,"{-145.510694,62.129856,-145.34411,62.281876}"
2020,0230940,place,"Gustavus, AK",-135.7281515,58.4346572,"{-135.899095,58.365431,-135.582607,58.463272}"
2020,0231050,place,"Haines, AK",-135.4688156,59.2496807,"{-135.54208,59.197067,-135.383444,59.295556}"
2020,0231270,place,"Halibut Cove, AK",-151.2237642,59.5695806,"{-151.321215,59.545707,-151.156898,59.604053}"
2020,0231710,place,"Happy Valley, AK",-151.5288682,59.8985138,"{-151.807012,59.842166,-151.364674,60.035785}"
2020,0231765,place,"Harding-Birch Lakes, AK",-146.5306007,64.3813051,"{-146.994841,64.257211,-146.206621,64.478228}"
2020,0232150,place,"Healy, AK",-148.9708423,63.9596321,"{-149.66277,63.665964,-148.172728,64.234577}"
2020,0232310,place,"Healy Lake, AK",-144.6815742,64.0097055,"{-144.866423,63.938849,-144.458411,64.110823}"
2020,0232550,place,"Hobart Bay, AK",-133.3065688,57.4177588,"{-133.517132,57.321447,-133.084023,57.545717}"
2020,0232810,place,"Hollis, AK",-132.7019221,55.5154743,"{-132.859153,55.453335,-132.517676,55.574812}"
2020,0233030,place,"Holy Cross, AK",-159.8587759,62.185115,"{-159.923718,62.138117,-159.715701,62.235316}"
2020,0233140,place,"Homer, AK",-151.5130952,59.6475029,"{-151.655037,59.599027,-151.407246,59.681158}"
2020,0233360,place,"Hoonah, AK",-135.4314739,58.1220103,"{-135.479808,58.091777,-135.377423,58.134034}"
2020,0233470,place,"Hooper Bay, AK",-166.1114715,61.5091672,"{-166.167615,61.491718,-166.063808,61.546254}"
2020,0233580,place,"Hope, AK",-149.6329912,60.8861245,"{-149.764003,60.829861,-149.472436,60.963469}"
2020,0233800,place,"Houston, AK",-149.8006105,61.6153035,"{-149.90384,61.559699,-149.722533,61.657186}"
2020,0233910,place,"Hughes, AK",-154.2376273,66.0452165,"{-154.269906,66.027401,-154.217809,66.080722}"
2020,0234350,place,"Huslia, AK",-156.3109533,65.7055241,"{-156.439498,65.668226,-156.264154,65.725963}"
2020,0234460,place,"Hydaburg, AK",-132.8204379,55.2058418,"{-132.829834,55.200494,-132.809102,55.212351}"
2020,0234570,place,"Hyder, AK",-130.0382879,55.9815417,"{-130.076828,55.911198,-130.003485,56.047504}"
2020,0234790,place,"Igiugig, AK",-155.8632749,59.3009893,"{-156.002602,59.273768,-155.766938,59.361781}"
2020,0235120,place,"Iliamna, AK",-154.8837525,59.7783424,"{-154.980719,59.735606,-154.725538,59.865118}"
2020,0235890,place,"Ivanof Bay, AK",-159.4932984,55.9181993,"{-159.516898,55.894413,-159.456954,55.963097}"
2020,0236400,place,"Juneau, AK",-134.1784454,58.3729099,"{-135.219128,57.791671,-133.172311,58.974972}"
2020,0236540,place,"Kachemak, AK",-151.436347,59.6745355,"{-151.473103,59.663911,-151.401447,59.685682}"
2020,0236770,place,"Kake, AK",-133.9036632,56.9753204,"{-133.99549,56.930674,-133.883274,56.996213}"
2020,0236990,place,"Kaktovik, AK",-143.629435,70.1214522,"{-143.657437,70.116955,-143.593098,70.132731}"
2020,0237250,place,"Kalifornsky, AK",-151.2203016,60.4533993,"{-151.301025,60.349629,-151.089134,60.54651}"
2020,0237430,place,"Kaltag, AK",-158.7787614,64.3141433,"{-158.822687,64.280389,-158.664385,64.364143}"
2020,0237540,place,"Karluk, AK",-154.3634131,57.5909814,"{-154.528873,57.539995,-154.209657,57.663754}"
2020,0237650,place,"Kasaan, AK",-132.4068335,55.5611447,"{-132.478383,55.530498,-132.375888,55.576013}"
2020,0237975,place,"Kasigluk, AK",-162.5365979,60.8638198,"{-162.595311,60.845405,-162.472504,60.928293}"
2020,0238090,place,"Kasilof, AK",-151.2328844,60.319336,"{-151.289516,60.299809,-151.184705,60.360665}"
2020,0238420,place,"Kenai, AK",-151.2080602,60.5622396,"{-151.352622,60.516636,-151.072521,60.603342}"
2020,0238910,place,"Kenny Lake, AK",-144.8213154,61.6216157,"{-145.17479,61.527636,-144.54129,61.812102}"
2020,0238970,place,"Ketchikan, AK",-131.6745523,55.3571445,"{-131.742849,55.327481,-131.615871,55.39414}"
2020,0239300,place,"Kiana, AK",-160.4343641,66.9725865,"{-160.448091,66.968444,-160.418693,66.975599}"
2020,0239410,place,"King Cove, AK",-162.316806,55.0849931,"{-162.399187,55.027219,-162.24855,55.13546}"
2020,0239630,place,"King Salmon, AK",-156.5285439,58.7352268,"{-156.78124,58.616667,-156.313889,58.885835}"
2020,0239740,place,"Kipnuk, AK",-164.0622214,59.9374561,"{-164.192613,59.892631,-163.951533,59.975673}"
2020,0239960,place,"Kivalina, AK",-164.5355372,67.7268839,"{-164.583176,67.709313,-164.459647,67.754168}"
2020,0240400,place,"Klawock, AK",-133.0861303,55.5564254,"{-133.103904,55.545237,-133.066586,55.562341}"
2020,0240510,place,"Klukwan, AK",-135.8882302,59.3982952,"{-135.92734,59.385612,-135.853867,59.41062}"
2020,0240645,place,"Knik-Fairview, AK",-149.6226014,61.5076454,"{-149.897786,61.39964,-149.32917,61.566909}"
2020,0240670,place,"Knik River, AK",-149.0074885,61.4619029,"{-149.240446,61.42625,-148.482481,61.525476}"
2020,0240840,place,"Kobuk, AK",-156.9040713,66.9234023,"{-156.967621,66.902064,-156.819976,66.960016}"
2020,0240950,place,"Kodiak, AK",-152.4197123,57.7911917,"{-152.455899,57.768333,-152.354129,57.81478}"
2020,0241210,place,"Kodiak Station, AK",-152.5959068,57.7679505,"{-152.650207,57.658764,-152.447708,57.801565}"
2020,0241280,place,"Kokhanok, AK",-154.7460074,59.4121094,"{-154.851352,59.373788,-154.627649,59.451057}"
2020,0241500,place,"Koliganek, AK",-157.22476,59.6966563,"{-157.312268,59.650783,-157.134724,59.736184}"
2020,0241610,place,"Kongiganak, AK",-162.8470174,59.9916382,"{-162.916012,59.947727,-162.781758,60.022714}"
2020,0241720,place,"Kotlik, AK",-163.5366538,63.0291896,"{-163.590478,63.019131,-163.511023,63.040795}"
2020,0241830,place,"Kotzebue, AK",-162.5034779,66.8770893,"{-162.624266,66.822684,-162.387947,66.951047}"
2020,0241940,place,"Koyuk, AK",-161.1454584,64.9410837,"{-161.194155,64.920817,-161.093447,64.953671}"
2020,0242050,place,"Koyukuk, AK",-157.6934736,64.9021069,"{-157.73599,64.874585,-157.635539,64.917667}"
2020,0242160,place,"Kupreanof, AK",-132.9721517,56.8212946,"{-133.018781,56.779143,-132.940311,56.833177}"
2020,0242380,place,"Kwethluk, AK",-161.4308439,60.7932306,"{-161.472918,60.776147,-161.356408,60.819488}"
2020,0242490,place,"Kwigillingok, AK",-163.1773167,59.8775746,"{-163.271018,59.836361,-163.052697,59.918066}"
2020,0242805,place,"Lake Louise, AK",-146.5401631,62.3016197,"{-146.788887,62.250496,-146.423984,62.551676}"
2020,0242820,place,"Lake Minchumina, AK",-152.4617938,63.7902529,"{-152.756673,63.650581,-152.055132,63.982231}"
2020,0243040,place,"Larsen Bay, AK",-154.0011546,57.5298927,"{-154.051713,57.525538,-153.958426,57.561668}"
2020,0243260,place,"Lazy Mountain, AK",-148.9255821,61.6582272,"{-149.089442,61.59373,-148.672203,61.714612}"
2020,0243810,place,"Levelock, AK",-156.9010206,59.0682459,"{-156.94939,59.00189,-156.844473,59.122862}"
2020,0244030,place,"Lime Village, AK",-155.2336307,61.3300401,"{-155.588133,61.253861,-155.05019,61.390533}"
2020,0244580,place,"Livengood, AK",-148.4227842,65.4765064,"{-148.924522,65.324322,-147.903214,65.646743}"
2020,0245020,place,"Loring, AK",-131.6399759,55.6066758,"{-131.661877,55.600476,-131.622062,55.609535}"
2020,0245295,place,"Lowell Point, AK",-149.493807,60.0760625,"{-149.530798,60.02818,-149.435646,60.101311}"
2020,0245460,place,"Lower Kalskag, AK",-160.3546498,61.5171211,"{-160.378344,61.505494,-160.332941,61.527157}"
2020,0245700,place,"Lutak, AK",-135.5890458,59.4122121,"{-135.855496,59.258329,-135.431408,59.506924}"
2020,0245790,place,"McCarthy, AK",-142.864693,61.453957,"{-143.175166,61.363641,-142.596213,61.558739}"
2020,0246010,place,"McGrath, AK",-155.5684216,62.9388752,"{-155.689707,62.899046,-155.436307,62.985697}"
2020,0246780,place,"Manley Hot Springs, AK",-150.6452806,65.0187573,"{-150.863187,64.960229,-150.444567,65.088124}"
2020,0246890,place,"Manokotak, AK",-158.9145006,58.7395231,"{-159.091761,58.551536,-158.724906,59.047918}"
2020,0247000,place,"Marshall, AK",-162.0608695,61.871555,"{-162.092286,61.859281,-162.016421,61.888168}"
2020,0247735,place,"Meadow Lakes, AK",-149.6096113,61.6379874,"{-149.783309,61.545637,-149.456921,61.725946}"
2020,0247990,place,"Mekoryuk, AK",-166.2681731,60.3701785,"{-166.359172,60.357233,-166.184283,60.391489}"
2020,0248200,place,"Mendeltna, AK",-146.7580308,62.1460983,"{-146.979811,61.949045,-146.051448,62.328329}"
2020,0248540,place,"Mentasta Lake, AK",-143.5614859,63.0116773,"{-143.942954,62.759904,-143.001201,63.116978}"
2020,0248590,place,"Mertarvik, AK",-164.49911,60.8109933,"{-164.5662,60.797946,-164.431451,60.826901}"
2020,0248870,place,"Metlakatla, AK",-131.5557262,55.1146989,"{-131.598612,55.107551,-131.532142,55.131406}"
2020,0249200,place,"Mill Bay, AK",-152.3675422,57.8155011,"{-152.403238,57.796858,-152.32464,57.837446}"
2020,0249530,place,"Minto, AK",-149.5902102,65.0896353,"{-149.985451,65.006077,-149.271764,65.236957}"
2020,0250080,place,"Moose Creek, AK",-147.1666273,64.7163687,"{-147.225047,64.704417,-147.123972,64.721428}"
2020,0250190,place,"Moose Pass, AK",-149.4683612,60.5059364,"{-149.563301,60.430585,-149.361667,60.552899}"
2020,0250800,place,"Mosquito Lake, AK",-136.1991008,59.4751,"{-136.36189,59.404445,-135.929492,59.54314}"
2020,0251180,place,"Mountain Village, AK",-163.6950238,62.0919635,"{-163.772635,62.075864,-163.669055,62.103683}"
2020,0251455,place,"Mud Bay, AK",-135.3564928,59.151183,"{-135.426371,59.082035,-135.295573,59.215329}"
2020,0251960,place,"Nabesna, AK",-143.0074302,62.4965478,"{-143.269244,62.3291,-142.756908,62.648571}"
2020,0252060,place,"Naknek, AK",-156.8858719,58.78516,"{-157.065078,58.712437,-156.754528,58.869436}"
2020,0252210,place,"Nanwalek, AK",-151.9295579,59.3338477,"{-151.965536,59.300582,-151.828992,59.361069}"
2020,0252390,place,"Napakiak, AK",-161.9855732,60.6905409,"{-161.999587,60.673586,-161.946961,60.703926}"
2020,0252720,place,"Napaskiak, AK",-161.7537822,60.7027819,"{-161.795818,60.689483,-161.736839,60.722386}"
2020,0252845,place,"Naukati Bay, AK",-133.195015,55.8741215,"{-133.24306,55.857276,-133.148047,55.899564}"
2020,0252915,place,"Nelchina, AK",-146.829938,62.0104034,"{-146.960972,61.935091,-146.618238,62.056487}"
2020,0252940,place,"Nelson Lagoon, AK",-161.6357986,55.8366486,"{-161.856895,55.621661,-160.806954,56.031402}"
2020,0253050,place,"Nenana, AK",-149.0836286,64.5360539,"{-149.134957,64.516911,-149.04987,64.566482}"
2020,0253270,place,"Newhalen, AK",-154.9024142,59.7370569,"{-154.947024,59.707289,-154.832523,59.743477}"
2020,0253710,place,"New Stuyahok, AK",-157.3090893,59.4853093,"{-157.35608,59.432768,-157.185916,59.519517}"
2020,0253820,place,"Newtok, AK",-164.6456845,60.9350667,"{-164.658814,60.924621,-164.613918,60.94627}"
2020,0253930,place,"Nightmute, AK",-164.8346397,60.4624011,"{-165.013391,60.429466,-164.618167,60.559464}"
2020,0254050,place,"Nikiski, AK",-151.2252677,60.7250153,"{-151.410569,60.638525,-151.011762,60.803794}"
2020,0254085,place,"Nikolaevsk, AK",-151.5963815,59.8295526,"{-151.741625,59.785065,-151.438127,59.877785}"
2020,0254150,place,"Nikolai, AK",-154.3749442,62.9991147,"{-154.408127,62.992545,-154.344498,63.026516}"
2020,0254260,place,"Nikolski, AK",-168.7185016,53.007863,"{-169.115498,52.821014,-168.524077,53.160181}"
2020,0254480,place,"Ninilchik, AK",-151.4043805,60.0613319,"{-151.6999,59.962511,-151.103948,60.201435}"
2020,0254700,place,"Noatak, AK",-163.0104336,67.5894823,"{-163.259853,67.520372,-162.931287,67.644929}"
2020,0254920,place,"Nome, AK",-165.4152873,64.5057413,"{-165.51385,64.464649,-165.322143,64.560241}"
2020,0255030,place,"Nondalton, AK",-154.8660461,59.9752459,"{-154.891225,59.937715,-154.809042,59.995977}"
2020,0255140,place,"Noorvik, AK",-161.0346694,66.8282098,"{-161.0644,66.819065,-161.01404,66.84076}"
2020,0255745,place,"North Lakes, AK",-149.3107243,61.6183777,"{-149.421181,61.584393,-149.198084,61.650025}"
2020,0255910,place,"North Pole, AK",-147.3626554,64.7527282,"{-147.426921,64.729899,-147.308354,64.776871}"
2020,0256220,place,"Northway, AK",-141.5412558,63.0007759,"{-141.966438,62.815085,-141.28605,63.100046}"
2020,0256320,place,"Nuiqsut, AK",-150.9896735,70.2134825,"{-151.052807,70.191848,-150.926384,70.235136}"
2020,0256350,place,"Nulato, AK",-158.2753502,64.6912829,"{-158.360753,64.643221,-158.032431,64.744407}"
2020,0256600,place,"Nunam Iqua, AK",-164.9005545,62.5068872,"{-164.966704,62.480207,-164.833114,62.541693}"
2020,0256680,place,"Nunapitchuk, AK",-162.4645692,60.8817393,"{-162.490995,60.848354,-162.431947,60.906127}"
2020,0257340,place,"Old Harbor, AK",-153.3296744,57.2187982,"{-153.435039,57.164413,-153.212123,57.247461}"
2020,0258330,place,"Oscarville, AK",-161.7882386,60.7234436,"{-161.834446,60.71255,-161.733527,60.748624}"
2020,0258550,place,"Ouzinkie, AK",-152.4623881,57.9246604,"{-152.521625,57.899262,-152.426117,57.940933}"
2020,0258660,place,"Palmer, AK",-149.1146791,61.5971678,"{-149.163586,61.574138,-149.072386,61.628314}"
2020,0259320,place,"Paxson, AK",-145.7576206,62.9757065,"{-146.109059,62.845569,-145.450311,63.171548}"
2020,0259540,place,"Pedro Bay, AK",-154.1412735,59.7895845,"{-154.252655,59.754169,-154.019219,59.819486}"
2020,0259650,place,"Pelican, AK",-136.2150664,57.9592291,"{-136.237929,57.952577,-136.201092,57.965217}"
2020,0260200,place,"Perryville, AK",-159.1557538,55.9344558,"{-159.189209,55.888637,-159.085345,55.980273}"
2020,0260310,place,"Petersburg, AK",-132.8749383,56.7569178,"{-132.987748,56.709768,-132.728929,56.827963}"
2020,0260460,place,"Petersville, AK",-150.8841237,62.4534835,"{-151.177058,62.172592,-150.39079,62.645284}"
2020,0260640,place,"Pilot Point, AK",-157.7228073,57.5411365,"{-158.050107,57.466814,-157.515882,57.734159}"
2020,0260750,place,"Pilot Station, AK",-162.8726482,61.9481671,"{-162.915434,61.926636,-162.850134,61.957754}"
2020,0260860,place,"Pitkas Point, AK",-163.2681282,62.0374035,"{-163.300659,62.028335,-163.240168,62.046994}"
2020,0261080,place,"Platinum, AK",-161.7470318,58.9525827,"{-161.842667,58.912628,-161.643406,59.056251}"
2020,0261120,place,"Pleasant Valley, AK",-146.8985501,64.8854679,"{-147.021813,64.837889,-146.762688,64.948036}"
2020,0261190,place,"Point Baker, AK",-133.6167942,56.3481317,"{-133.631202,56.340222,-133.600188,56.357537}"
2020,0261630,place,"Point Hope, AK",-166.6811594,68.3442095,"{-166.840106,68.331039,-166.488888,68.365942}"
2020,0261700,place,"Point Lay, AK",-162.8341203,69.7371168,"{-163.114199,69.672893,-162.617075,69.898588}"
2020,0261788,place,"Point MacKenzie, AK",-150.0485254,61.3426997,"{-150.310421,61.237777,-149.808774,61.456426}"
2020,0261825,place,"Point Possession, AK",-150.6888437,60.9230808,"{-151.02536,60.792031,-150.389608,61.038499}"
2020,0262125,place,"Pope-Vannoy Landing, AK",-154.4472363,59.5706021,"{-154.691682,59.500971,-154.293662,59.624142}"
2020,0262285,place,"Portage Creek, AK",-157.6698166,58.9054196,"{-157.725883,58.86559,-157.59953,58.941437}"
2020,0262510,place,"Port Alexander, AK",-134.6527498,56.2375934,"{-134.666668,56.166277,-134.618423,56.283334}"
2020,0262620,place,"Port Alsworth, AK",-154.3396098,60.1567303,"{-154.406247,60.124627,-154.225886,60.221675}"
2020,0263170,place,"Port Clarence, AK",-166.7643385,65.1089652,"{-166.953354,65.030057,-166.578972,65.278444}"
2020,0263280,place,"Port Graham, AK",-151.8464982,59.3398032,"{-151.904492,59.318824,-151.793162,59.360332}"
2020,0263390,place,"Port Heiden, AK",-158.5864165,56.9652405,"{-158.696248,56.884477,-158.526748,57.000105}"
2020,0263610,place,"Port Lions, AK",-152.8562477,57.8670125,"{-152.902303,57.85077,-152.800752,57.894125}"
2020,0263870,place,"Port Protection, AK",-133.6064199,56.3318805,"{-133.623758,56.308189,-133.562122,56.35443}"
2020,0264240,place,"Primrose, AK",-149.2964485,60.3416244,"{-149.461038,60.269027,-149.215221,60.420499}"
2020,0264380,place,"Prudhoe Bay, AK",-148.7493738,70.3658681,"{-149.932766,70.082556,-147.764168,70.570816}"
2020,0264600,place,"Quinhagak, AK",-161.8972431,59.7512789,"{-161.941214,59.736149,-161.865642,59.765045}"
2020,0264820,place,"Rampart, AK",-149.9210154,65.4049155,"{-150.31601,65.299411,-149.639979,65.515758}"
2020,0264930,place,"Red Devil, AK",-157.3585205,61.7574595,"{-157.436332,61.728554,-157.235223,61.838816}"
2020,0264980,place,"Red Dog Mine, AK",-162.8668688,68.0644112,"{-163.055679,67.97066,-162.71868,68.170144}"
2020,0265345,place,"Ridgeway, AK",-151.0521008,60.5308329,"{-151.132252,60.498581,-150.940821,60.55959}"
2020,0265590,place,"Ruby, AK",-155.5005397,64.7232896,"{-155.554767,64.706092,-155.453533,64.749402}"
2020,0265700,place,"Russian Mission, AK",-161.362911,61.7786637,"{-161.392313,61.765427,-161.314297,61.801531}"
2020,0265800,place,"St. George, AK",-169.6599396,56.5710439,"{-169.880238,56.483228,-169.377545,56.675681}"
2020,0266140,place,"St. Mary's, AK",-163.2442565,62.062775,"{-163.484081,62.018112,-163.11718,62.104772}"
2020,0266360,place,"St. Michael, AK",-162.1344864,63.458499,"{-162.233745,63.416183,-161.992688,63.528259}"
2020,0266470,place,"St. Paul, AK",-170.3228236,57.1790765,"{-170.522709,56.995772,-169.847694,57.305269}"
2020,0266510,place,"Salamatof, AK",-151.3112891,60.6042123,"{-151.357816,60.581669,-151.269854,60.647802}"
2020,0266550,place,"Salcha, AK",-146.8836201,64.5341032,"{-147.152025,64.445381,-146.609481,64.632611}"
2020,0267020,place,"Sand Point, AK",-160.4843438,55.3134701,"{-160.580431,55.266667,-160.458333,55.383365}"
2020,0267460,place,"Savoonga, AK",-170.4833237,63.6797055,"{-170.594752,63.661454,-170.398269,63.69733}"
2020,0267570,place,"Saxman, AK",-131.58915,55.3231649,"{-131.606625,55.313323,-131.57155,55.33323}"
2020,0267680,place,"Scammon Bay, AK",-165.5832794,61.8419289,"{-165.596494,61.835902,-165.570326,61.848639}"
2020,0268230,place,"Selawik, AK",-160.0007656,66.5980611,"{-160.026524,66.584615,-159.971896,66.61503}"
2020,0268340,place,"Seldovia, AK",-151.7103867,59.4394802,"{-151.722733,59.432857,-151.699824,59.447164}"
2020,0268370,place,"Seldovia Village, AK",-151.5887555,59.4612699,"{-151.721393,59.414061,-151.462819,59.486224}"
2020,0268560,place,"Seward, AK",-149.3915808,60.1247863,"{-149.475161,60.082924,-149.274084,60.155159}"
2020,0268670,place,"Shageluk, AK",-159.5513678,62.661586,"{-159.604746,62.639064,-159.510385,62.704041}"
2020,0268890,place,"Shaktoolik, AK",-161.1935141,64.3544806,"{-161.237027,64.316456,-161.124135,64.380183}"
2020,0269770,place,"Shishmaref, AK",-166.1253304,66.2329659,"{-166.178474,66.210089,-166.019921,66.26499}"
2020,0270100,place,"Shungnak, AK",-157.149979,66.880505,"{-157.204947,66.858841,-157.094892,66.902169}"
2020,0270320,place,"Silver Springs, AK",-145.3583112,62.0193113,"{-145.413383,61.995908,-145.320191,62.044043}"
2020,0270540,place,"Sitka, AK",-135.3673965,57.1932044,"{-136.454427,56.147586,-134.4277,58.001343}"
2020,0270760,place,"Skagway, AK",-135.2757198,59.4644313,"{-135.338348,59.421565,-135.248848,59.492592}"
2020,0270870,place,"Skwentna, AK",-151.1999937,61.8886894,"{-151.811174,61.776986,-150.669158,62.087462}"
2020,0270930,place,"Slana, AK",-143.5223975,62.6178604,"{-144.115021,62.486934,-143.132826,62.769069}"
2020,0271090,place,"Sleetmute, AK",-157.1030202,61.6538615,"{-157.312772,61.541461,-156.940348,61.751651}"
2020,0271640,place,"Soldotna, AK",-151.0690145,60.4853176,"{-151.146887,60.473266,-150.998931,60.502223}"
2020,0272135,place,"South Lakes, AK",-149.3155438,61.5875606,"{-149.420081,61.5677,-149.23758,61.61455}"
2020,0272190,place,"South Naknek, AK",-156.994126,58.6755335,"{-157.259786,58.616666,-156.757697,58.734401}"
2020,0272230,place,"South Van Horn, AK",-147.7877523,64.8097339,"{-147.896766,64.789671,-147.668053,64.834123}"
2020,0272960,place,"Stebbins, AK",-162.2599813,63.4733937,"{-162.406453,63.416183,-162.16978,63.541622}"
2020,0272985,place,"Steele Creek, AK",-147.4350582,64.9256133,"{-147.676938,64.856341,-147.163764,65.005822}"
2020,0273070,place,"Sterling, AK",-150.8052596,60.5401484,"{-151.012911,60.459672,-150.588311,60.612735}"
2020,0273290,place,"Stevens Village, AK",-149.0803074,66.0237107,"{-149.166627,65.994068,-148.988519,66.066958}"
2020,0273400,place,"Stony River, AK",-156.5905089,61.7920101,"{-156.656013,61.771766,-156.540188,61.812372}"
2020,0273950,place,"Sunrise, AK",-149.4677982,60.8700678,"{-149.525127,60.824496,-149.418691,60.917606}"
2020,0274340,place,"Susitna, AK",-150.5880626,61.5465579,"{-150.844534,61.342166,-150.331905,61.636426}"
2020,0274350,place,"Susitna North, AK",-149.7284319,62.1535154,"{-150.176129,61.913169,-149.417031,62.249499}"
2020,0274525,place,"Sutton-Alpine, AK",-148.874181,61.7414363,"{-149.097788,61.673102,-148.609012,61.812668}"
2020,0274610,place,"Takotna, AK",-156.0838288,62.9826981,"{-156.205119,62.934862,-155.918628,63.009044}"
2020,0274830,place,"Talkeetna, AK",-149.9239277,62.3095154,"{-150.156501,62.205273,-149.761623,62.384363}"
2020,0275050,place,"Tanacross, AK",-143.4865991,63.3286914,"{-143.634212,63.272123,-143.191392,63.429508}"
2020,0275077,place,"Tanaina, AK",-149.4277404,61.6572439,"{-149.511567,61.599339,-149.33109,61.728334}"
2020,0275160,place,"Tanana, AK",-152.0551023,65.184004,"{-152.154482,65.152952,-151.982649,65.196268}"
